% program   : RTKLIB ver.2.4.2
% inp file  : ../../data/0161329A.obs
% inp file  : ../../data/tskc2018329.nav
% inp file  : ../../data/2018328X_329A.l6
% obs start : 2018/11/24 23:59:13.0 UTC (week2028 604771.0s)
% obs end   : 2018/11/25 00:59:41.0 UTC (week2029   3599.0s)
% pos mode  : ppp-rtk
% solution  : forward
% elev mask : 15.0 deg
% dynamics  : on
% tidecorr  : on
% tropo opt : off
% ephemeris : broadcast+ssr apc
% navi sys  : gps galileo qzss
% antenna1  : TRM59800.80     NONE  ( 0.0000  0.0000  0.0000)
%
% (lat/lon/height=WGS84/ellipsoidal,Q=1:fix,2:float,3:sbas,4:dgps,5:single,6:ppp,ns=# of satellites)
%  UTC                   latitude(deg) longitude(deg)  height(m)   Q  ns   sdn(m)   sde(m)   sdu(m)  sdne(m)  sdeu(m)  sdun(m) age(s)  ratio
2018/11/24 23:59:13.000   39.980561560  141.225084849   314.4316   2   5   0.5180   0.5794   1.6224   0.2843  -0.5685  -0.7351   1.00    0.0
2018/11/24 23:59:14.000   39.980561451  141.225085031   314.4650   2   5   0.3671   0.4105   1.1503   0.2014  -0.4030  -0.5212   2.00    0.0
2018/11/24 23:59:15.000   39.980561997  141.225085065   314.4756   2   5   0.3002   0.3356   0.9407   0.1646  -0.3295  -0.4262   3.00    0.0
2018/11/24 23:59:16.000   39.980562269  141.225085122   314.3681   2   5   0.2603   0.2910   0.8156   0.1427  -0.2856  -0.3696   4.00    0.0
2018/11/24 23:59:17.000   39.980562589  141.225085036   314.2798   2   5   0.2331   0.2605   0.7302   0.1277  -0.2556  -0.3309   0.00    0.0
2018/11/24 23:59:18.000   39.980560628  141.225085389   313.7910   1   5   0.0158   0.0184   0.0637   0.0073  -0.0229  -0.0188   1.00    3.9
2018/11/24 23:59:19.000   39.980560679  141.225085205   313.9223   1   5   0.0151   0.0169   0.0467   0.0080  -0.0164  -0.0210   2.00    2.8
2018/11/24 23:59:20.000   39.980560709  141.225085198   313.9164   1   5   0.0147   0.0165   0.0454   0.0078  -0.0159  -0.0204   3.00    2.9
2018/11/24 23:59:21.000   39.980560699  141.225085218   313.9140   1   5   0.0144   0.0161   0.0444   0.0077  -0.0156  -0.0200   4.00    2.9
2018/11/24 23:59:22.000   39.980560656  141.225085292   313.8962   1   5   0.0141   0.0158   0.0436   0.0075  -0.0153  -0.0196   0.00    3.1
2018/11/24 23:59:23.000   39.980560659  141.225085300   313.8921   1   5   0.0139   0.0156   0.0429   0.0074  -0.0150  -0.0193   1.00    3.3
2018/11/24 23:59:24.000   39.980560665  141.225085293   313.8919   1   5   0.0137   0.0154   0.0424   0.0073  -0.0148  -0.0191   2.00    3.5
2018/11/24 23:59:25.000   39.980560649  141.225085265   313.8912   1   5   0.0136   0.0153   0.0420   0.0073  -0.0147  -0.0189   3.00    3.7
2018/11/24 23:59:26.000   39.980560647  141.225085240   313.8931   1   5   0.0135   0.0152   0.0417   0.0072  -0.0146  -0.0188   4.00    4.0
2018/11/24 23:59:27.000   39.980560650  141.225085232   313.8678   1   5   0.0134   0.0151   0.0414   0.0072  -0.0145  -0.0187   0.00    4.4
2018/11/24 23:59:28.000   39.980560657  141.225085198   313.8695   1   5   0.0133   0.0150   0.0412   0.0071  -0.0144  -0.0186   1.00    4.7
2018/11/24 23:59:29.000   39.980560678  141.225085219   313.8591   1   5   0.0133   0.0149   0.0410   0.0071  -0.0143  -0.0185   2.00    5.0
2018/11/24 23:59:30.000   39.980560667  141.225085266   313.8590   1   5   0.0132   0.0149   0.0408   0.0071  -0.0143  -0.0184   3.00    5.3
2018/11/24 23:59:31.000   39.980560684  141.225085253   313.8616   1   5   0.0132   0.0148   0.0407   0.0070  -0.0142  -0.0184   4.00    5.4
2018/11/24 23:59:32.000   39.980560583  141.225085289   313.8520   1   5   0.0132   0.0148   0.0406   0.0070  -0.0142  -0.0183   0.00    7.7
2018/11/24 23:59:33.000   39.980560588  141.225085303   313.8482   1   5   0.0132   0.0148   0.0406   0.0070  -0.0141  -0.0183   1.00   10.5
2018/11/24 23:59:34.000   39.980560590  141.225085235   313.8614   1   5   0.0131   0.0147   0.0405   0.0070  -0.0141  -0.0183   2.00   13.2
2018/11/24 23:59:35.000   39.980560556  141.225085268   313.8705   1   5   0.0131   0.0147   0.0404   0.0070  -0.0141  -0.0183   3.00   15.6
2018/11/24 23:59:36.000   39.980560550  141.225085236   313.8793   1   5   0.0131   0.0147   0.0404   0.0070  -0.0141  -0.0182   4.00   17.9
2018/11/24 23:59:37.000   39.980560512  141.225085291   313.8877   1   5   0.0131   0.0147   0.0404   0.0070  -0.0141  -0.0182   0.00   19.1
2018/11/24 23:59:38.000   39.980560506  141.225085258   313.8940   1   5   0.0131   0.0147   0.0403   0.0070  -0.0140  -0.0182   1.00   20.2
2018/11/24 23:59:39.000   39.980560502  141.225085221   313.8974   1   5   0.0131   0.0147   0.0403   0.0070  -0.0140  -0.0182   2.00   20.8
2018/11/24 23:59:40.000   39.980560471  141.225085243   313.9050   1   5   0.0131   0.0147   0.0403   0.0070  -0.0140  -0.0182   3.00   21.8
2018/11/24 23:59:41.000   39.980560471  141.225085208   313.9171   1   5   0.0131   0.0147   0.0403   0.0069  -0.0140  -0.0182   4.00   22.7
2018/11/24 23:59:42.000   39.980560464  141.225085157   313.9553   1   5   0.0131   0.0147   0.0403   0.0069  -0.0140  -0.0182   0.00   21.9
2018/11/24 23:59:43.000   39.980560432  141.225085197   313.9644   1   5   0.0131   0.0147   0.0403   0.0069  -0.0140  -0.0182   1.00   21.5
2018/11/24 23:59:44.000   39.980560407  141.225085172   313.9735   1   5   0.0131   0.0147   0.0403   0.0069  -0.0140  -0.0182   2.00   21.2
2018/11/24 23:59:45.000   39.980560390  141.225085156   313.9762   1   5   0.0131   0.0147   0.0402   0.0069  -0.0140  -0.0182   3.00   21.2
2018/11/24 23:59:46.000   39.980560381  141.225085215   313.9770   1   5   0.0131   0.0147   0.0402   0.0069  -0.0140  -0.0182   4.00   20.5
2018/11/24 23:59:47.000   39.980560421  141.225085300   313.9388   1   5   0.0131   0.0147   0.0402   0.0069  -0.0140  -0.0182   0.00   20.7
2018/11/24 23:59:48.000   39.980560429  141.225085280   313.9312   1   5   0.0131   0.0147   0.0402   0.0069  -0.0140  -0.0182   1.00   20.8
2018/11/24 23:59:49.000   39.980560454  141.225085277   313.9339   1   5   0.0131   0.0146   0.0402   0.0069  -0.0139  -0.0182   2.00   20.4
2018/11/24 23:59:50.000   39.980560419  141.225085284   313.9445   1   5   0.0131   0.0146   0.0402   0.0069  -0.0139  -0.0182   3.00   20.6
2018/11/24 23:59:51.000   39.980560389  141.225085299   313.9484   1   5   0.0131   0.0146   0.0402   0.0069  -0.0139  -0.0182   4.00   20.5
2018/11/24 23:59:52.000   39.980560479  141.225085381   313.9158   1   5   0.0131   0.0146   0.0402   0.0069  -0.0139  -0.0182   0.00   21.6
2018/11/24 23:59:53.000   39.980560496  141.225085393   313.9095   1   5   0.0131   0.0146   0.0402   0.0069  -0.0139  -0.0182   1.00   22.4
2018/11/24 23:59:54.000   39.980560469  141.225085392   313.9166   1   5   0.0131   0.0146   0.0402   0.0069  -0.0139  -0.0182   2.00   23.0
2018/11/24 23:59:55.000   39.980560454  141.225085363   313.9176   1   5   0.0131   0.0146   0.0402   0.0069  -0.0139  -0.0182   3.00   23.5
2018/11/24 23:59:56.000   39.980560455  141.225085383   313.9176   1   5   0.0131   0.0146   0.0402   0.0069  -0.0139  -0.0182   4.00   25.0
2018/11/24 23:59:57.000   39.980560483  141.225085406   313.8986   1   5   0.0131   0.0146   0.0402   0.0069  -0.0139  -0.0182   0.00   26.5
2018/11/24 23:59:58.000   39.980560476  141.225085421   313.8981   1   5   0.0131   0.0146   0.0402   0.0069  -0.0139  -0.0182   1.00   27.7
2018/11/24 23:59:59.000   39.980560484  141.225085395   313.9024   1   5   0.0131   0.0146   0.0402   0.0069  -0.0139  -0.0182   2.00   29.2
2018/11/25 00:00:00.000   39.980560488  141.225085441   313.8981   1   5   0.0131   0.0146   0.0402   0.0069  -0.0139  -0.0182   3.00   30.7
2018/11/25 00:00:01.000   39.980560474  141.225085465   313.9027   1   5   0.0131   0.0146   0.0402   0.0069  -0.0139  -0.0182   4.00   32.0
2018/11/25 00:00:02.000   39.980560421  141.225085363   313.8917   1   6   0.0131   0.0146   0.0402   0.0069  -0.0139  -0.0182   0.00   34.3
2018/11/25 00:00:03.000   39.980560429  141.225085394   313.8962   1   6   0.0130   0.0140   0.0388   0.0074  -0.0154  -0.0177   1.00   36.7
2018/11/25 00:00:04.000   39.980560405  141.225085394   313.8995   1   6   0.0129   0.0138   0.0378   0.0076  -0.0160  -0.0173   2.00   38.8
2018/11/25 00:00:05.000   39.980560414  141.225085447   313.9023   1   6   0.0129   0.0138   0.0374   0.0077  -0.0162  -0.0172   3.00   41.9
2018/11/25 00:00:06.000   39.980560428  141.225085450   313.8964   1   6   0.0129   0.0138   0.0374   0.0077  -0.0162  -0.0172   4.00   45.6
2018/11/25 00:00:07.000   39.980560408  141.225085462   313.8926   1   6   0.0128   0.0137   0.0373   0.0077  -0.0163  -0.0172   0.00   49.5
2018/11/25 00:00:08.000   39.980560412  141.225085460   313.8971   1   6   0.0128   0.0137   0.0371   0.0077  -0.0164  -0.0171   1.00   52.8
2018/11/25 00:00:09.000   39.980560398  141.225085481   313.9009   1   6   0.0128   0.0137   0.0370   0.0078  -0.0164  -0.0171   2.00   55.1
2018/11/25 00:00:10.000   39.980560395  141.225085459   313.9015   1   6   0.0128   0.0136   0.0370   0.0078  -0.0165  -0.0171   3.00   59.5
2018/11/25 00:00:11.000   39.980560393  141.225085452   313.9021   1   6   0.0128   0.0136   0.0369   0.0078  -0.0165  -0.0170   4.00   63.2
2018/11/25 00:00:12.000   39.980560386  141.225085469   313.9026   1   6   0.0128   0.0136   0.0369   0.0078  -0.0165  -0.0170   0.00   67.4
2018/11/25 00:00:13.000   39.980560398  141.225085478   313.9051   1   6   0.0128   0.0136   0.0369   0.0078  -0.0166  -0.0170   1.00   72.0
2018/11/25 00:00:14.000   39.980560358  141.225085452   313.9083   1   6   0.0128   0.0136   0.0368   0.0078  -0.0166  -0.0170   2.00   76.7
2018/11/25 00:00:15.000   39.980560369  141.225085499   313.9035   1   6   0.0128   0.0136   0.0368   0.0078  -0.0166  -0.0170   3.00   80.4
2018/11/25 00:00:16.000   39.980560354  141.225085467   313.9091   1   6   0.0128   0.0136   0.0367   0.0078  -0.0166  -0.0170   4.00   83.8
2018/11/25 00:00:17.000   39.980560404  141.225085454   313.9047   1   6   0.0128   0.0136   0.0367   0.0078  -0.0166  -0.0170   0.00   86.0
2018/11/25 00:00:18.000   39.980560393  141.225085430   313.9077   1   6   0.0128   0.0136   0.0367   0.0078  -0.0167  -0.0170   1.00   89.2
2018/11/25 00:00:19.000   39.980560411  141.225085416   313.9081   1   6   0.0128   0.0136   0.0367   0.0078  -0.0167  -0.0169   2.00   92.6
2018/11/25 00:00:20.000   39.980560412  141.225085439   313.9023   1   6   0.0128   0.0135   0.0366   0.0078  -0.0167  -0.0169   3.00   96.8
2018/11/25 00:00:21.000   39.980560412  141.225085411   313.9013   1   6   0.0128   0.0135   0.0366   0.0078  -0.0167  -0.0169   4.00   99.8
2018/11/25 00:00:22.000   39.980560449  141.225085434   313.8961   1   6   0.0128   0.0135   0.0366   0.0078  -0.0167  -0.0169   0.00  104.6
2018/11/25 00:00:23.000   39.980560446  141.225085420   313.8999   1   6   0.0128   0.0135   0.0366   0.0078  -0.0167  -0.0169   1.00  109.2
2018/11/25 00:00:24.000   39.980560472  141.225085444   313.8950   1   6   0.0128   0.0135   0.0365   0.0078  -0.0167  -0.0169   2.00  112.9
2018/11/25 00:00:25.000   39.980560461  141.225085398   313.8976   1   6   0.0128   0.0135   0.0365   0.0078  -0.0167  -0.0169   3.00  116.4
2018/11/25 00:00:26.000   39.980560436  141.225085419   313.8962   1   6   0.0128   0.0135   0.0365   0.0079  -0.0167  -0.0169   4.00  119.9
2018/11/25 00:00:27.000   39.980560550  141.225085434   313.8686   1   6   0.0128   0.0135   0.0365   0.0079  -0.0168  -0.0169   0.00  117.6
2018/11/25 00:00:28.000   39.980560532  141.225085396   313.8731   1   6   0.0128   0.0135   0.0365   0.0079  -0.0168  -0.0169   1.00  116.0
2018/11/25 00:00:29.000   39.980560545  141.225085385   313.8734   1   6   0.0128   0.0135   0.0364   0.0079  -0.0168  -0.0169   2.00  115.5
2018/11/25 00:00:30.000   39.980560559  141.225085385   313.8690   1   6   0.0128   0.0135   0.0364   0.0079  -0.0168  -0.0169   3.00  115.3
2018/11/25 00:00:31.000   39.980560540  141.225085355   313.8725   1   6   0.0128   0.0135   0.0364   0.0079  -0.0168  -0.0169   4.00  115.4
2018/11/25 00:00:32.000   39.980560597  141.225085237   313.8551   1   7   0.0131   0.0146   0.0399   0.0068  -0.0138  -0.0182   0.00  116.5
2018/11/25 00:00:33.000   39.980560595  141.225085212   313.8494   1   8   0.0131   0.0146   0.0395   0.0068  -0.0137  -0.0184   1.00  117.7
2018/11/25 00:00:34.000   39.980560585  141.225085214   313.8560   1   8   0.0130   0.0139   0.0379   0.0074  -0.0151  -0.0179   2.00  120.7
2018/11/25 00:00:35.000   39.980560586  141.225085188   313.8606   1   8   0.0129   0.0137   0.0369   0.0076  -0.0156  -0.0175   3.00  122.4
2018/11/25 00:00:36.000   39.980560594  141.225085227   313.8590   1   8   0.0128   0.0137   0.0365   0.0077  -0.0157  -0.0174   4.00  126.0
2018/11/25 00:00:37.000   39.980560589  141.225085282   313.8521   1   8   0.0128   0.0136   0.0359   0.0077  -0.0158  -0.0174   0.00   19.7
2018/11/25 00:00:38.000   39.980560590  141.225085307   313.8520   1   8   0.0127   0.0133   0.0350   0.0080  -0.0164  -0.0171   1.00   11.4
2018/11/25 00:00:39.000   39.980560607  141.225085285   313.8473   1   8   0.0127   0.0133   0.0349   0.0080  -0.0165  -0.0170   2.00   13.1
2018/11/25 00:00:40.000   39.980560604  141.225085294   313.8419   1   8   0.0127   0.0133   0.0349   0.0080  -0.0165  -0.0170   3.00   15.4
2018/11/25 00:00:41.000   39.980560612  141.225085305   313.8430   1   8   0.0127   0.0133   0.0348   0.0080  -0.0165  -0.0170   4.00   18.1
2018/11/25 00:00:42.000   39.980560622  141.225085314   313.8437   1   8   0.0127   0.0133   0.0347   0.0080  -0.0165  -0.0170   0.00   21.1
2018/11/25 00:00:43.000   39.980560613  141.225085325   313.8467   1   8   0.0127   0.0133   0.0347   0.0080  -0.0165  -0.0170   1.00   23.8
2018/11/25 00:00:44.000   39.980560635  141.225085384   313.8385   1   8   0.0127   0.0132   0.0347   0.0080  -0.0166  -0.0170   2.00   26.8
2018/11/25 00:00:45.000   39.980560653  141.225085348   313.8299   1   8   0.0127   0.0132   0.0347   0.0080  -0.0166  -0.0170   3.00   30.3
2018/11/25 00:00:46.000   39.980560655  141.225085327   313.8294   1   8   0.0127   0.0132   0.0346   0.0080  -0.0166  -0.0170   4.00   34.4
2018/11/25 00:00:47.000   39.980560660  141.225085425   313.8242   1   8   0.0127   0.0132   0.0346   0.0080  -0.0166  -0.0170   0.00   38.8
2018/11/25 00:00:48.000   39.980560692  141.225085452   313.8165   1   8   0.0127   0.0132   0.0346   0.0080  -0.0166  -0.0170   1.00   44.1
2018/11/25 00:00:49.000   39.980560687  141.225085453   313.8180   1   8   0.0127   0.0132   0.0346   0.0080  -0.0166  -0.0170   2.00   49.2
2018/11/25 00:00:50.000   39.980560699  141.225085495   313.8111   1   8   0.0127   0.0132   0.0346   0.0080  -0.0166  -0.0170   3.00   56.3
2018/11/25 00:00:51.000   39.980560694  141.225085464   313.8090   1   8   0.0127   0.0132   0.0346   0.0080  -0.0166  -0.0170   4.00   64.2
2018/11/25 00:00:52.000   39.980560657  141.225085423   313.8311   1   8   0.0127   0.0132   0.0346   0.0080  -0.0166  -0.0170   0.00   71.8
2018/11/25 00:00:53.000   39.980560650  141.225085435   313.8361   1   8   0.0127   0.0132   0.0346   0.0080  -0.0166  -0.0170   1.00   79.7
2018/11/25 00:00:54.000   39.980560653  141.225085441   313.8301   1   8   0.0127   0.0132   0.0346   0.0080  -0.0166  -0.0170   2.00   86.8
2018/11/25 00:00:55.000   39.980560621  141.225085426   313.8380   1   8   0.0127   0.0132   0.0346   0.0080  -0.0166  -0.0170   3.00   93.6
2018/11/25 00:00:56.000   39.980560631  141.225085398   313.8394   1   8   0.0127   0.0132   0.0346   0.0080  -0.0166  -0.0170   4.00   99.3
2018/11/25 00:00:57.000   39.980560595  141.225085402   313.8491   1   8   0.0127   0.0132   0.0346   0.0080  -0.0166  -0.0170   0.00  105.3
2018/11/25 00:00:58.000   39.980560607  141.225085370   313.8476   1   8   0.0127   0.0132   0.0346   0.0080  -0.0166  -0.0170   1.00  109.9
2018/11/25 00:00:59.000   39.980560614  141.225085348   313.8515   1   8   0.0127   0.0132   0.0346   0.0080  -0.0166  -0.0170   2.00  113.5
2018/11/25 00:01:00.000   39.980560607  141.225085403   313.8516   1   8   0.0127   0.0132   0.0346   0.0080  -0.0165  -0.0170   3.00  112.1
2018/11/25 00:01:01.000   39.980560597  141.225085360   313.8509   1   8   0.0127   0.0132   0.0345   0.0080  -0.0165  -0.0170   4.00  114.6
2018/11/25 00:01:02.000   39.980560571  141.225085314   313.8578   1   8   0.0127   0.0132   0.0345   0.0080  -0.0165  -0.0170   0.00  110.9
2018/11/25 00:01:03.000   39.980560562  141.225085268   313.8632   1   8   0.0127   0.0132   0.0345   0.0080  -0.0165  -0.0170   1.00  107.0
2018/11/25 00:01:04.000   39.980560532  141.225085300   313.8655   1   8   0.0127   0.0132   0.0345   0.0080  -0.0165  -0.0170   2.00  100.7
2018/11/25 00:01:05.000   39.980560544  141.225085263   313.8716   1   8   0.0127   0.0132   0.0345   0.0080  -0.0165  -0.0170   3.00   97.7
2018/11/25 00:01:06.000   39.980560532  141.225085309   313.8662   1   8   0.0127   0.0132   0.0345   0.0080  -0.0165  -0.0170   4.00   93.9
2018/11/25 00:01:07.000   39.980560510  141.225085319   313.8750   1   8   0.0127   0.0132   0.0345   0.0080  -0.0165  -0.0170   0.00   91.1
2018/11/25 00:01:08.000   39.980560499  141.225085319   313.8801   1   8   0.0127   0.0132   0.0345   0.0080  -0.0165  -0.0170   1.00   88.0
2018/11/25 00:01:09.000   39.980560517  141.225085336   313.8711   1   8   0.0127   0.0132   0.0345   0.0080  -0.0165  -0.0170   2.00   83.9
2018/11/25 00:01:10.000   39.980560506  141.225085316   313.8690   1   8   0.0127   0.0132   0.0345   0.0080  -0.0165  -0.0170   3.00   80.5
2018/11/25 00:01:11.000   39.980560528  141.225085332   313.8638   1   8   0.0127   0.0132   0.0345   0.0080  -0.0165  -0.0170   4.00   77.5
2018/11/25 00:01:12.000   39.980560535  141.225085341   313.8597   1   8   0.0127   0.0132   0.0345   0.0080  -0.0165  -0.0170   0.00   74.5
2018/11/25 00:01:13.000   39.980560523  141.225085364   313.8534   1   8   0.0127   0.0132   0.0345   0.0080  -0.0165  -0.0170   1.00   70.6
2018/11/25 00:01:14.000   39.980560534  141.225085360   313.8484   1   8   0.0127   0.0132   0.0345   0.0080  -0.0165  -0.0170   2.00   65.3
2018/11/25 00:01:15.000   39.980560557  141.225085306   313.8517   1   8   0.0127   0.0132   0.0345   0.0080  -0.0165  -0.0170   3.00   60.3
2018/11/25 00:01:16.000   39.980560555  141.225085316   313.8570   1   8   0.0127   0.0132   0.0345   0.0080  -0.0165  -0.0170   4.00   57.0
2018/11/25 00:01:17.000   39.980560576  141.225085300   313.8585   1   8   0.0127   0.0132   0.0345   0.0080  -0.0165  -0.0170   0.00   57.9
2018/11/25 00:01:18.000   39.980560550  141.225085278   313.8638   1   8   0.0127   0.0132   0.0345   0.0080  -0.0165  -0.0170   1.00   59.2
2018/11/25 00:01:19.000   39.980560576  141.225085268   313.8648   1   8   0.0127   0.0132   0.0345   0.0080  -0.0165  -0.0170   2.00   61.2
2018/11/25 00:01:20.000   39.980560569  141.225085302   313.8649   1   8   0.0127   0.0132   0.0345   0.0080  -0.0165  -0.0170   3.00   64.0
2018/11/25 00:01:21.000   39.980560599  141.225085303   313.8610   1   8   0.0127   0.0132   0.0345   0.0080  -0.0165  -0.0170   4.00   66.9
2018/11/25 00:01:22.000   39.980560621  141.225085250   313.8716   1   8   0.0127   0.0132   0.0345   0.0080  -0.0165  -0.0170   0.00   70.1
2018/11/25 00:01:23.000   39.980560598  141.225085211   313.8740   1   8   0.0127   0.0132   0.0346   0.0080  -0.0165  -0.0170   1.00   73.9
2018/11/25 00:01:24.000   39.980560620  141.225085274   313.8721   1   8   0.0127   0.0132   0.0346   0.0080  -0.0166  -0.0170   2.00   75.2
2018/11/25 00:01:25.000   39.980560614  141.225085239   313.8700   1   8   0.0128   0.0132   0.0347   0.0080  -0.0166  -0.0170   3.00   75.2
2018/11/25 00:01:26.000   39.980560599  141.225085247   313.8690   1   8   0.0128   0.0132   0.0348   0.0079  -0.0167  -0.0169   4.00   75.5
2018/11/25 00:01:27.000   39.980560606  141.225085198   313.8734   1   8   0.0128   0.0133   0.0350   0.0079  -0.0168  -0.0169   0.00   79.1
2018/11/25 00:01:28.000   39.980560593  141.225085211   313.8677   1   8   0.0128   0.0134   0.0355   0.0078  -0.0171  -0.0167   1.00   80.6
2018/11/25 00:01:29.000   39.980560590  141.225085243   313.8621   1   8   0.0129   0.0137   0.0365   0.0075  -0.0178  -0.0164   2.00   81.6
2018/11/25 00:01:30.000   39.980560614  141.225085263   313.8501   1   8   0.0130   0.0141   0.0379   0.0072  -0.0187  -0.0159   3.00   80.4
2018/11/25 00:01:31.000   39.980560585  141.225085228   313.8489   1   8   0.0130   0.0141   0.0380   0.0072  -0.0187  -0.0159   4.00   79.3
2018/11/25 00:01:32.000   39.980560537  141.225085314   313.8684   1   9   0.0129   0.0140   0.0378   0.0072  -0.0186  -0.0159   0.00   80.0
2018/11/25 00:01:33.000   39.980560543  141.225085275   313.8717   1   9   0.0118   0.0124   0.0330   0.0042  -0.0151  -0.0125   1.00   79.0
2018/11/25 00:01:34.000   39.980560553  141.225085279   313.8699   1   9   0.0112   0.0117   0.0301   0.0028  -0.0131  -0.0111   2.00   79.5
2018/11/25 00:01:35.000   39.980560568  141.225085257   313.8635   1   9   0.0108   0.0114   0.0288   0.0023  -0.0121  -0.0108   3.00   79.4
2018/11/25 00:01:36.000   39.980560554  141.225085251   313.8616   1   9   0.0108   0.0112   0.0281   0.0015  -0.0115  -0.0104   4.00   80.6
2018/11/25 00:01:37.000   39.980560535  141.225085266   313.8574   1   9   0.0101   0.0101   0.0243  -0.0038  -0.0081  -0.0077   0.00    6.5
2018/11/25 00:01:38.000   39.980560531  141.225085235   313.8584   1   9   0.0099   0.0100   0.0239  -0.0037  -0.0077  -0.0077   1.00    7.0
2018/11/25 00:01:39.000   39.980560571  141.225085229   313.8537   1   9   0.0098   0.0099   0.0235  -0.0036  -0.0074  -0.0079   2.00    7.3
2018/11/25 00:01:40.000   39.980560535  141.225085250   313.8580   1   9   0.0097   0.0099   0.0233  -0.0036  -0.0071  -0.0079   3.00    7.8
2018/11/25 00:01:41.000   39.980560555  141.225085230   313.8613   1   9   0.0096   0.0098   0.0231  -0.0036  -0.0069  -0.0079   4.00    8.2
2018/11/25 00:01:42.000   39.980560580  141.225085229   313.8543   1   9   0.0095   0.0098   0.0230  -0.0036  -0.0068  -0.0079   0.00    8.5
2018/11/25 00:01:43.000   39.980560572  141.225085237   313.8505   1   9   0.0095   0.0098   0.0228  -0.0036  -0.0066  -0.0079   1.00    8.7
2018/11/25 00:01:44.000   39.980560589  141.225085254   313.8443   1   9   0.0095   0.0098   0.0228  -0.0036  -0.0065  -0.0079   2.00    8.8
2018/11/25 00:01:45.000   39.980560588  141.225085209   313.8486   1   9   0.0094   0.0097   0.0227  -0.0036  -0.0065  -0.0079   3.00    8.9
2018/11/25 00:01:46.000   39.980560594  141.225085177   313.8533   1   9   0.0094   0.0097   0.0226  -0.0036  -0.0064  -0.0079   4.00    8.9
2018/11/25 00:01:47.000   39.980560544  141.225085245   313.8575   1   9   0.0094   0.0097   0.0226  -0.0036  -0.0064  -0.0079   0.00    9.1
2018/11/25 00:01:48.000   39.980560539  141.225085238   313.8525   1   9   0.0094   0.0097   0.0226  -0.0036  -0.0063  -0.0079   1.00    9.1
2018/11/25 00:01:49.000   39.980560525  141.225085264   313.8518   1   9   0.0094   0.0097   0.0225  -0.0036  -0.0063  -0.0079   2.00    9.0
2018/11/25 00:01:50.000   39.980560505  141.225085219   313.8536   1   9   0.0094   0.0097   0.0225  -0.0036  -0.0063  -0.0079   3.00    9.3
2018/11/25 00:01:51.000   39.980560505  141.225085238   313.8508   1   9   0.0094   0.0097   0.0225  -0.0036  -0.0062  -0.0079   4.00    9.3
2018/11/25 00:01:52.000   39.980560509  141.225085324   313.8561   1   9   0.0094   0.0097   0.0225  -0.0036  -0.0062  -0.0079   0.00    9.3
2018/11/25 00:01:53.000   39.980560497  141.225085351   313.8590   1   9   0.0094   0.0097   0.0225  -0.0036  -0.0062  -0.0079   1.00    9.3
2018/11/25 00:01:54.000   39.980560496  141.225085347   313.8566   1   9   0.0094   0.0097   0.0224  -0.0036  -0.0062  -0.0079   2.00    9.4
2018/11/25 00:01:55.000   39.980560506  141.225085364   313.8523   1   9   0.0094   0.0097   0.0224  -0.0036  -0.0062  -0.0079   3.00    9.2
2018/11/25 00:01:56.000   39.980560513  141.225085358   313.8501   1   9   0.0094   0.0097   0.0224  -0.0036  -0.0062  -0.0080   4.00    9.2
2018/11/25 00:01:57.000   39.980560499  141.225085405   313.8595   1   9   0.0094   0.0097   0.0224  -0.0036  -0.0061  -0.0080   0.00    9.5
2018/11/25 00:01:58.000   39.980560488  141.225085381   313.8624   1   9   0.0094   0.0097   0.0224  -0.0036  -0.0061  -0.0080   1.00    9.7
2018/11/25 00:01:59.000   39.980560500  141.225085364   313.8584   1   9   0.0094   0.0097   0.0224  -0.0036  -0.0061  -0.0080   2.00    9.8
2018/11/25 00:02:00.000   39.980560504  141.225085361   313.8599   1   9   0.0094   0.0097   0.0224  -0.0036  -0.0061  -0.0080   3.00    9.9
2018/11/25 00:02:01.000   39.980560496  141.225085363   313.8578   1   9   0.0094   0.0097   0.0224  -0.0036  -0.0061  -0.0080   4.00   10.0
2018/11/25 00:02:02.000   39.980560522  141.225085402   313.8560   1   9   0.0094   0.0097   0.0224  -0.0036  -0.0061  -0.0080   0.00   10.1
2018/11/25 00:02:03.000   39.980560517  141.225085421   313.8605   1   9   0.0094   0.0097   0.0224  -0.0036  -0.0061  -0.0080   1.00   10.3
2018/11/25 00:02:04.000   39.980560538  141.225085417   313.8597   1   9   0.0094   0.0097   0.0224  -0.0036  -0.0061  -0.0080   2.00   10.3
2018/11/25 00:02:05.000   39.980560524  141.225085399   313.8624   1   9   0.0094   0.0097   0.0224  -0.0036  -0.0061  -0.0080   3.00   10.4
2018/11/25 00:02:06.000   39.980560534  141.225085367   313.8609   1   9   0.0094   0.0097   0.0224  -0.0036  -0.0061  -0.0080   4.00   10.5
2018/11/25 00:02:07.000   39.980560541  141.225085348   313.8647   1   9   0.0094   0.0097   0.0224  -0.0036  -0.0061  -0.0080   0.00   10.7
2018/11/25 00:02:08.000   39.980560545  141.225085332   313.8643   1   9   0.0094   0.0097   0.0224  -0.0036  -0.0061  -0.0080   1.00   10.9
2018/11/25 00:02:09.000   39.980560554  141.225085308   313.8659   1   9   0.0094   0.0097   0.0224  -0.0036  -0.0061  -0.0080   2.00   11.1
2018/11/25 00:02:10.000   39.980560555  141.225085311   313.8598   1   9   0.0094   0.0097   0.0224  -0.0036  -0.0061  -0.0080   3.00   11.4
2018/11/25 00:02:11.000   39.980560558  141.225085316   313.8576   1   9   0.0094   0.0097   0.0224  -0.0036  -0.0061  -0.0080   4.00   11.8
2018/11/25 00:02:12.000   39.980560575  141.225085283   313.8564   1   9   0.0094   0.0097   0.0224  -0.0036  -0.0061  -0.0080   0.00   12.0
2018/11/25 00:02:13.000   39.980560553  141.225085252   313.8580   1   9   0.0094   0.0097   0.0224  -0.0036  -0.0061  -0.0080   1.00   12.4
2018/11/25 00:02:14.000   39.980560559  141.225085247   313.8536   1   9   0.0094   0.0097   0.0224  -0.0036  -0.0061  -0.0080   2.00   12.8
2018/11/25 00:02:15.000   39.980560550  141.225085254   313.8552   1   9   0.0094   0.0097   0.0224  -0.0036  -0.0061  -0.0080   3.00   13.2
2018/11/25 00:02:16.000   39.980560572  141.225085210   313.8484   1   9   0.0094   0.0097   0.0224  -0.0036  -0.0061  -0.0080   4.00   13.7
2018/11/25 00:02:17.000   39.980560574  141.225085200   313.8485   1   9   0.0094   0.0097   0.0224  -0.0036  -0.0061  -0.0080   0.00   14.2
2018/11/25 00:02:18.000   39.980560574  141.225085196   313.8529   1   9   0.0094   0.0097   0.0224  -0.0036  -0.0061  -0.0080   1.00   14.9
2018/11/25 00:02:19.000   39.980560573  141.225085167   313.8558   1   9   0.0094   0.0097   0.0224  -0.0036  -0.0061  -0.0080   2.00   15.5
2018/11/25 00:02:20.000   39.980560571  141.225085182   313.8495   1   9   0.0094   0.0097   0.0224  -0.0036  -0.0061  -0.0080   3.00   16.1
2018/11/25 00:02:21.000   39.980560569  141.225085140   313.8532   1   9   0.0094   0.0097   0.0224  -0.0036  -0.0061  -0.0080   4.00   16.8
2018/11/25 00:02:22.000   39.980560584  141.225085174   313.8639   1   9   0.0094   0.0097   0.0224  -0.0036  -0.0061  -0.0080   0.00   17.5
2018/11/25 00:02:23.000   39.980560561  141.225085162   313.8619   1   9   0.0094   0.0097   0.0224  -0.0036  -0.0061  -0.0080   1.00   18.2
2018/11/25 00:02:24.000   39.980560561  141.225085174   313.8563   1   9   0.0094   0.0097   0.0224  -0.0036  -0.0061  -0.0080   2.00   18.7
2018/11/25 00:02:25.000   39.980560570  141.225085187   313.8559   1   9   0.0094   0.0097   0.0224  -0.0036  -0.0061  -0.0080   3.00   19.2
2018/11/25 00:02:26.000   39.980560580  141.225085210   313.8567   1   9   0.0094   0.0097   0.0224  -0.0037  -0.0061  -0.0080   4.00   19.7
2018/11/25 00:02:27.000   39.980560595  141.225085205   313.8653   1   9   0.0094   0.0097   0.0224  -0.0037  -0.0061  -0.0080   0.00   20.0
2018/11/25 00:02:28.000   39.980560594  141.225085219   313.8665   1   9   0.0094   0.0097   0.0224  -0.0037  -0.0061  -0.0080   1.00   20.4
2018/11/25 00:02:29.000   39.980560611  141.225085171   313.8620   1   9   0.0094   0.0097   0.0224  -0.0037  -0.0061  -0.0080   2.00   20.7
2018/11/25 00:02:30.000   39.980560624  141.225085150   313.8618   1   9   0.0094   0.0097   0.0224  -0.0037  -0.0061  -0.0080   3.00   21.1
2018/11/25 00:02:31.000   39.980560616  141.225085137   313.8657   1   9   0.0094   0.0097   0.0224  -0.0037  -0.0061  -0.0080   4.00   21.4
2018/11/25 00:02:32.000   39.980560615  141.225085178   313.8701   1   9   0.0094   0.0097   0.0224  -0.0037  -0.0061  -0.0080   0.00   22.1
2018/11/25 00:02:33.000   39.980560619  141.225085174   313.8715   1   9   0.0094   0.0097   0.0224  -0.0037  -0.0061  -0.0080   1.00   22.6
2018/11/25 00:02:34.000   39.980560626  141.225085180   313.8732   1   9   0.0094   0.0097   0.0224  -0.0037  -0.0061  -0.0080   2.00   23.2
2018/11/25 00:02:35.000   39.980560624  141.225085177   313.8701   1   9   0.0094   0.0097   0.0224  -0.0037  -0.0061  -0.0080   3.00   23.6
2018/11/25 00:02:36.000   39.980560635  141.225085141   313.8634   1   9   0.0094   0.0097   0.0224  -0.0037  -0.0061  -0.0080   4.00   24.2
2018/11/25 00:02:37.000   39.980560620  141.225085198   313.8643   1   9   0.0094   0.0097   0.0224  -0.0037  -0.0060  -0.0080   0.00   24.6
2018/11/25 00:02:38.000   39.980560620  141.225085219   313.8574   1   9   0.0094   0.0097   0.0224  -0.0037  -0.0060  -0.0080   1.00   24.9
2018/11/25 00:02:39.000   39.980560622  141.225085203   313.8613   1   9   0.0094   0.0097   0.0224  -0.0037  -0.0060  -0.0080   2.00   25.2
2018/11/25 00:02:40.000   39.980560602  141.225085182   313.8568   1   9   0.0094   0.0097   0.0224  -0.0037  -0.0060  -0.0080   3.00   25.4
2018/11/25 00:02:41.000   39.980560638  141.225085173   313.8466   1   9   0.0094   0.0097   0.0224  -0.0037  -0.0060  -0.0080   4.00   25.6
2018/11/25 00:02:42.000   39.980560673  141.225085169   313.8397   1   9   0.0094   0.0097   0.0224  -0.0037  -0.0060  -0.0080   0.00   25.8
2018/11/25 00:02:43.000   39.980560652  141.225085160   313.8361   1   9   0.0094   0.0097   0.0224  -0.0037  -0.0060  -0.0080   1.00   26.1
2018/11/25 00:02:44.000   39.980560663  141.225085173   313.8349   1   9   0.0094   0.0097   0.0224  -0.0037  -0.0060  -0.0080   2.00   26.6
2018/11/25 00:02:45.000   39.980560640  141.225085175   313.8365   1   9   0.0094   0.0097   0.0224  -0.0037  -0.0060  -0.0080   3.00   27.0
2018/11/25 00:02:46.000   39.980560659  141.225085156   313.8314   1   9   0.0094   0.0097   0.0224  -0.0037  -0.0060  -0.0080   4.00   27.2
2018/11/25 00:02:47.000   39.980560653  141.225085188   313.8337   1   9   0.0094   0.0097   0.0224  -0.0037  -0.0060  -0.0080   0.00   27.8
2018/11/25 00:02:48.000   39.980560683  141.225085147   313.8348   1   9   0.0094   0.0097   0.0224  -0.0037  -0.0060  -0.0080   1.00   28.2
2018/11/25 00:02:49.000   39.980560702  141.225085145   313.8387   1   9   0.0094   0.0097   0.0224  -0.0037  -0.0060  -0.0080   2.00   28.6
2018/11/25 00:02:50.000   39.980560694  141.225085153   313.8345   1   9   0.0094   0.0097   0.0224  -0.0037  -0.0060  -0.0080   3.00   29.1
2018/11/25 00:02:51.000   39.980560675  141.225085137   313.8381   1   9   0.0094   0.0097   0.0224  -0.0037  -0.0060  -0.0080   4.00   29.5
2018/11/25 00:02:52.000   39.980560644  141.225085176   313.8587   1   9   0.0094   0.0097   0.0224  -0.0037  -0.0060  -0.0080   0.00   30.3
2018/11/25 00:02:53.000   39.980560682  141.225085164   313.8567   1   9   0.0094   0.0097   0.0224  -0.0037  -0.0060  -0.0080   1.00   31.1
2018/11/25 00:02:54.000   39.980560675  141.225085153   313.8503   1   9   0.0094   0.0097   0.0224  -0.0037  -0.0060  -0.0080   2.00   32.0
2018/11/25 00:02:55.000   39.980560661  141.225085153   313.8490   1   9   0.0094   0.0097   0.0224  -0.0037  -0.0060  -0.0080   3.00   32.8
2018/11/25 00:02:56.000   39.980560686  141.225085157   313.8542   1   9   0.0094   0.0097   0.0224  -0.0037  -0.0060  -0.0080   4.00   33.6
2018/11/25 00:02:57.000   39.980560655  141.225085152   313.8643   1   9   0.0094   0.0097   0.0224  -0.0037  -0.0060  -0.0080   0.00   34.3
2018/11/25 00:02:58.000   39.980560653  141.225085110   313.8705   1   9   0.0094   0.0097   0.0224  -0.0037  -0.0060  -0.0080   1.00   35.0
2018/11/25 00:02:59.000   39.980560667  141.225085123   313.8673   1   9   0.0094   0.0097   0.0224  -0.0037  -0.0060  -0.0080   2.00   35.7
2018/11/25 00:03:00.000   39.980560696  141.225085109   313.8715   1   9   0.0094   0.0097   0.0223  -0.0037  -0.0060  -0.0080   3.00   36.3
2018/11/25 00:03:01.000   39.980560668  141.225085083   313.8720   1   9   0.0094   0.0097   0.0223  -0.0037  -0.0060  -0.0080   4.00   37.2
2018/11/25 00:03:02.000   39.980560613  141.225085234   313.8766   1   9   0.0094   0.0097   0.0223  -0.0037  -0.0060  -0.0080   0.00   38.7
2018/11/25 00:03:03.000   39.980560590  141.225085201   313.8774   1   9   0.0094   0.0097   0.0224  -0.0037  -0.0059  -0.0080   1.00   40.1
2018/11/25 00:03:04.000   39.980560598  141.225085217   313.8737   1   9   0.0094   0.0097   0.0224  -0.0037  -0.0059  -0.0081   2.00   41.6
2018/11/25 00:03:05.000   39.980560616  141.225085203   313.8735   1   9   0.0094   0.0098   0.0225  -0.0037  -0.0057  -0.0081   3.00   43.1
2018/11/25 00:03:06.000   39.980560601  141.225085188   313.8782   1   9   0.0095   0.0099   0.0226  -0.0038  -0.0055  -0.0082   4.00   44.3
2018/11/25 00:03:07.000   39.980560560  141.225085255   313.8731   1   9   0.0095   0.0100   0.0227  -0.0039  -0.0051  -0.0083   0.00   45.3
2018/11/25 00:03:08.000   39.980560586  141.225085237   313.8693   1   9   0.0095   0.0100   0.0227  -0.0039  -0.0050  -0.0083   1.00   45.8
2018/11/25 00:03:09.000   39.980560582  141.225085250   313.8724   1   9   0.0095   0.0100   0.0227  -0.0039  -0.0050  -0.0083   2.00   46.0
2018/11/25 00:03:10.000   39.980560573  141.225085271   313.8643   1   9   0.0095   0.0100   0.0226  -0.0038  -0.0052  -0.0083   3.00   46.2
2018/11/25 00:03:11.000   39.980560562  141.225085250   313.8696   1   9   0.0095   0.0099   0.0226  -0.0038  -0.0054  -0.0082   4.00   46.3
2018/11/25 00:03:12.000   39.980560565  141.225085284   313.8615   1   9   0.0095   0.0098   0.0225  -0.0038  -0.0056  -0.0082   0.00   46.2
2018/11/25 00:03:13.000   39.980560563  141.225085272   313.8572   1   9   0.0094   0.0098   0.0225  -0.0038  -0.0057  -0.0081   1.00   46.3
2018/11/25 00:03:14.000   39.980560573  141.225085246   313.8578   1   9   0.0094   0.0098   0.0224  -0.0037  -0.0057  -0.0081   2.00   46.2
2018/11/25 00:03:15.000   39.980560556  141.225085266   313.8525   1   9   0.0094   0.0097   0.0224  -0.0037  -0.0058  -0.0081   3.00   46.1
2018/11/25 00:03:16.000   39.980560542  141.225085227   313.8557   1   9   0.0094   0.0097   0.0224  -0.0037  -0.0058  -0.0081   4.00   45.8
2018/11/25 00:03:17.000   39.980560515  141.225085279   313.8642   1   9   0.0094   0.0097   0.0224  -0.0037  -0.0058  -0.0081   0.00   46.2
2018/11/25 00:03:18.000   39.980560530  141.225085296   313.8541   1   9   0.0094   0.0097   0.0224  -0.0037  -0.0059  -0.0081   1.00   45.9
2018/11/25 00:03:19.000   39.980560530  141.225085285   313.8568   1   9   0.0094   0.0097   0.0224  -0.0037  -0.0059  -0.0080   2.00   45.8
2018/11/25 00:03:20.000   39.980560530  141.225085252   313.8592   1   9   0.0094   0.0097   0.0223  -0.0037  -0.0059  -0.0080   3.00   45.4
2018/11/25 00:03:21.000   39.980560517  141.225085282   313.8647   1   9   0.0094   0.0097   0.0223  -0.0037  -0.0059  -0.0080   4.00   45.3
2018/11/25 00:03:22.000   39.980560521  141.225085242   313.8590   1   9   0.0094   0.0097   0.0223  -0.0037  -0.0059  -0.0080   0.00   45.4
2018/11/25 00:03:23.000   39.980560502  141.225085287   313.8608   1   9   0.0094   0.0097   0.0223  -0.0037  -0.0059  -0.0080   1.00   45.3
2018/11/25 00:03:24.000   39.980560501  141.225085294   313.8617   1   9   0.0094   0.0097   0.0223  -0.0037  -0.0059  -0.0080   2.00   45.3
2018/11/25 00:03:25.000   39.980560499  141.225085278   313.8650   1   9   0.0094   0.0097   0.0223  -0.0037  -0.0059  -0.0080   3.00   45.4
2018/11/25 00:03:26.000   39.980560515  141.225085271   313.8611   1   9   0.0094   0.0097   0.0223  -0.0037  -0.0059  -0.0080   4.00   45.0
2018/11/25 00:03:27.000   39.980560549  141.225085293   313.8660   1   9   0.0094   0.0097   0.0223  -0.0037  -0.0059  -0.0080   0.00   45.1
2018/11/25 00:03:28.000   39.980560536  141.225085265   313.8675   1   9   0.0094   0.0097   0.0223  -0.0037  -0.0059  -0.0080   1.00   44.9
2018/11/25 00:03:29.000   39.980560549  141.225085258   313.8631   1   9   0.0094   0.0097   0.0223  -0.0037  -0.0059  -0.0080   2.00   44.4
2018/11/25 00:03:30.000   39.980560551  141.225085298   313.8620   1   9   0.0094   0.0097   0.0223  -0.0037  -0.0059  -0.0080   3.00   44.0
2018/11/25 00:03:31.000   39.980560559  141.225085268   313.8585   1   9   0.0094   0.0097   0.0223  -0.0037  -0.0059  -0.0080   4.00   43.5
2018/11/25 00:03:32.000   39.980560570  141.225085345   313.8619   1   9   0.0094   0.0097   0.0223  -0.0037  -0.0059  -0.0080   0.00   44.0
2018/11/25 00:03:33.000   39.980560581  141.225085384   313.8579   1   9   0.0094   0.0097   0.0223  -0.0037  -0.0059  -0.0080   1.00   44.4
2018/11/25 00:03:34.000   39.980560607  141.225085355   313.8545   1   9   0.0094   0.0097   0.0223  -0.0037  -0.0059  -0.0080   2.00   44.5
2018/11/25 00:03:35.000   39.980560593  141.225085336   313.8523   1   9   0.0094   0.0097   0.0223  -0.0037  -0.0059  -0.0080   3.00   44.4
2018/11/25 00:03:36.000   39.980560573  141.225085341   313.8548   1   9   0.0094   0.0097   0.0223  -0.0037  -0.0059  -0.0080   4.00   44.3
2018/11/25 00:03:37.000   39.980560572  141.225085312   313.8514   1   9   0.0094   0.0097   0.0223  -0.0037  -0.0059  -0.0080   0.00   44.5
2018/11/25 00:03:38.000   39.980560603  141.225085331   313.8512   1   9   0.0094   0.0097   0.0223  -0.0037  -0.0059  -0.0080   1.00   44.9
2018/11/25 00:03:39.000   39.980560585  141.225085387   313.8518   1   9   0.0094   0.0097   0.0223  -0.0037  -0.0059  -0.0080   2.00   44.7
2018/11/25 00:03:40.000   39.980560573  141.225085394   313.8530   1   9   0.0094   0.0097   0.0223  -0.0037  -0.0059  -0.0080   3.00   44.1
2018/11/25 00:03:41.000   39.980560582  141.225085404   313.8451   1   9   0.0094   0.0097   0.0223  -0.0037  -0.0059  -0.0080   4.00   43.3
2018/11/25 00:03:42.000   39.980560597  141.225085411   313.8488   1   9   0.0095   0.0097   0.0224  -0.0038  -0.0059  -0.0079   0.00   42.5
2018/11/25 00:03:43.000   39.980560604  141.225085384   313.8479   1   9   0.0095   0.0097   0.0225  -0.0039  -0.0059  -0.0079   1.00   41.7
2018/11/25 00:03:44.000   39.980560585  141.225085418   313.8435   1   9   0.0095   0.0098   0.0225  -0.0039  -0.0058  -0.0079   2.00   40.7
2018/11/25 00:03:45.000   39.980560573  141.225085426   313.8464   1   9   0.0096   0.0099   0.0226  -0.0041  -0.0057  -0.0078   3.00   39.9
2018/11/25 00:03:46.000   39.980560602  141.225085418   313.8451   1   9   0.0097   0.0101   0.0229  -0.0043  -0.0056  -0.0076   4.00   39.0
2018/11/25 00:03:47.000   39.980560594  141.225085403   313.8583   1   9   0.0100   0.0104   0.0235  -0.0048  -0.0051  -0.0072   0.00   38.8
2018/11/25 00:03:48.000   39.980560578  141.225085380   313.8664   1   9   0.0101   0.0105   0.0237  -0.0049  -0.0050  -0.0070   1.00   38.3
2018/11/25 00:03:49.000   39.980560585  141.225085370   313.8653   1   9   0.0101   0.0107   0.0240  -0.0050  -0.0043  -0.0070   2.00   37.9
2018/11/25 00:03:50.000   39.980560564  141.225085336   313.8652   1   9   0.0100   0.0109   0.0241  -0.0050  -0.0032  -0.0073   3.00   37.6
2018/11/25 00:03:51.000   39.980560588  141.225085338   313.8585   1   9   0.0100   0.0109   0.0242  -0.0049  -0.0027  -0.0075   4.00   37.3
2018/11/25 00:03:52.000   39.980560543  141.225085313   313.8654   1   9   0.0099   0.0108   0.0240  -0.0048  -0.0028  -0.0076   0.00   37.3
2018/11/25 00:03:53.000   39.980560572  141.225085316   313.8660   1   9   0.0098   0.0106   0.0236  -0.0046  -0.0038  -0.0077   1.00   37.2
2018/11/25 00:03:54.000   39.980560575  141.225085337   313.8631   1   9   0.0097   0.0103   0.0233  -0.0044  -0.0043  -0.0078   2.00   37.3
2018/11/25 00:03:55.000   39.980560556  141.225085335   313.8641   1   9   0.0096   0.0102   0.0231  -0.0042  -0.0047  -0.0079   3.00   37.1
2018/11/25 00:03:56.000   39.980560553  141.225085325   313.8645   1   9   0.0096   0.0102   0.0230  -0.0042  -0.0047  -0.0080   4.00   36.9
2018/11/25 00:03:57.000   39.980560538  141.225085284   313.8644   1   9   0.0095   0.0102   0.0229  -0.0042  -0.0046  -0.0080   0.00   37.1
2018/11/25 00:03:58.000   39.980560531  141.225085322   313.8664   1   9   0.0095   0.0101   0.0229  -0.0041  -0.0047  -0.0081   1.00   37.1
2018/11/25 00:03:59.000   39.980560559  141.225085319   313.8660   1   9   0.0095   0.0100   0.0227  -0.0040  -0.0050  -0.0081   2.00   37.0
2018/11/25 00:04:00.000   39.980560533  141.225085338   313.8639   1   9   0.0095   0.0099   0.0226  -0.0040  -0.0052  -0.0081   3.00   36.8
2018/11/25 00:04:01.000   39.980560531  141.225085346   313.8635   1   9   0.0094   0.0099   0.0226  -0.0039  -0.0054  -0.0081   4.00   36.7
2018/11/25 00:04:02.000   39.980560553  141.225085340   313.8790   1   9   0.0094   0.0098   0.0225  -0.0039  -0.0054  -0.0081   0.00   37.3
2018/11/25 00:04:03.000   39.980560532  141.225085329   313.8770   1   9   0.0094   0.0098   0.0225  -0.0038  -0.0055  -0.0081   1.00   38.0
2018/11/25 00:04:04.000   39.980560557  141.225085357   313.8703   1   9   0.0094   0.0098   0.0224  -0.0038  -0.0056  -0.0081   2.00   38.5
2018/11/25 00:04:05.000   39.980560534  141.225085358   313.8701   1   9   0.0094   0.0097   0.0224  -0.0038  -0.0056  -0.0081   3.00   39.0
2018/11/25 00:04:06.000   39.980560544  141.225085329   313.8725   1   9   0.0094   0.0097   0.0224  -0.0038  -0.0057  -0.0081   4.00   39.2
2018/11/25 00:04:07.000   39.980560519  141.225085340   313.8660   1   9   0.0094   0.0097   0.0223  -0.0038  -0.0057  -0.0081   0.00   39.5
2018/11/25 00:04:08.000   39.980560522  141.225085339   313.8626   1   9   0.0094   0.0097   0.0223  -0.0038  -0.0057  -0.0081   1.00   39.7
2018/11/25 00:04:09.000   39.980560531  141.225085346   313.8664   1   9   0.0094   0.0097   0.0223  -0.0038  -0.0057  -0.0081   2.00   39.8
2018/11/25 00:04:10.000   39.980560487  141.225085354   313.8776   1   9   0.0094   0.0097   0.0223  -0.0038  -0.0058  -0.0081   3.00   39.9
2018/11/25 00:04:11.000   39.980560506  141.225085336   313.8752   1   9   0.0094   0.0097   0.0223  -0.0037  -0.0058  -0.0081   4.00   39.8
2018/11/25 00:04:12.000   39.980560520  141.225085377   313.8747   1   9   0.0094   0.0097   0.0223  -0.0037  -0.0058  -0.0081   0.00   39.7
2018/11/25 00:04:13.000   39.980560520  141.225085383   313.8755   1   9   0.0094   0.0097   0.0223  -0.0037  -0.0058  -0.0081   1.00   39.6
2018/11/25 00:04:14.000   39.980560527  141.225085390   313.8774   1   9   0.0095   0.0097   0.0223  -0.0038  -0.0058  -0.0081   2.00   39.4
2018/11/25 00:04:15.000   39.980560563  141.225085378   313.8714   1   9   0.0096   0.0097   0.0224  -0.0038  -0.0059  -0.0081   3.00   39.1
2018/11/25 00:04:16.000   39.980560565  141.225085369   313.8751   1   9   0.0099   0.0097   0.0225  -0.0038  -0.0060  -0.0083   4.00   38.8
2018/11/25 00:04:17.000   39.980560610  141.225085359   313.8765   1   9   0.0106   0.0097   0.0228  -0.0039  -0.0061  -0.0087   0.00   38.5
2018/11/25 00:04:18.000   39.980560636  141.225085383   313.8772   1   9   0.0117   0.0097   0.0231  -0.0040  -0.0062  -0.0093   1.00   38.2
2018/11/25 00:04:19.000   39.980560653  141.225085375   313.8729   1   9   0.0124   0.0097   0.0232  -0.0042  -0.0063  -0.0095   2.00   38.0
2018/11/25 00:04:20.000   39.980560693  141.225085381   313.8735   1   9   0.0121   0.0097   0.0232  -0.0041  -0.0062  -0.0095   3.00   37.7
2018/11/25 00:04:21.000   39.980560703  141.225085380   313.8754   1   9   0.0121   0.0097   0.0232  -0.0042  -0.0063  -0.0093   4.00   37.5
2018/11/25 00:04:22.000   39.980560686  141.225085355   313.8809   1   9   0.0121   0.0098   0.0231  -0.0043  -0.0063  -0.0089   0.00   37.6
2018/11/25 00:04:23.000   39.980560667  141.225085375   313.8827   1   9   0.0122   0.0098   0.0232  -0.0046  -0.0065  -0.0083   1.00   37.8
2018/11/25 00:04:24.000   39.980560655  141.225085368   313.8795   1   9   0.0122   0.0099   0.0233  -0.0050  -0.0067  -0.0074   2.00   37.7
2018/11/25 00:04:25.000   39.980560633  141.225085283   313.8817   1   9   0.0120   0.0099   0.0234  -0.0051  -0.0069  -0.0066   3.00   37.7
2018/11/25 00:04:26.000   39.980560633  141.225085310   313.8824   1   9   0.0115   0.0099   0.0233  -0.0049  -0.0068  -0.0066   4.00   37.5
2018/11/25 00:04:27.000   39.980560594  141.225085309   313.8799   1   9   0.0112   0.0098   0.0232  -0.0048  -0.0068  -0.0067   0.00   37.6
2018/11/25 00:04:28.000   39.980560611  141.225085263   313.8783   1   9   0.0109   0.0098   0.0231  -0.0047  -0.0067  -0.0068   1.00   37.5
2018/11/25 00:04:29.000   39.980560619  141.225085297   313.8886   1   9   0.0106   0.0098   0.0229  -0.0045  -0.0065  -0.0071   2.00   37.5
2018/11/25 00:04:30.000   39.980560629  141.225085255   313.8793   1   9   0.0103   0.0097   0.0227  -0.0043  -0.0063  -0.0074   3.00   37.3
2018/11/25 00:04:31.000   39.980560600  141.225085285   313.8901   1   9   0.0101   0.0097   0.0226  -0.0042  -0.0062  -0.0076   4.00   37.0
2018/11/25 00:04:32.000   39.980560581  141.225085289   313.8873   1   9   0.0099   0.0097   0.0225  -0.0041  -0.0061  -0.0077   0.00   37.3
2018/11/25 00:04:33.000   39.980560608  141.225085265   313.8902   1   9   0.0100   0.0097   0.0226  -0.0042  -0.0062  -0.0076   1.00   37.5
2018/11/25 00:04:34.000   39.980560625  141.225085238   313.9010   1   9   0.0104   0.0098   0.0229  -0.0044  -0.0065  -0.0072   2.00   37.5
2018/11/25 00:04:35.000   39.980560629  141.225085207   313.9016   1   9   0.0104   0.0098   0.0229  -0.0044  -0.0064  -0.0072   3.00   37.5
2018/11/25 00:04:36.000   39.980560645  141.225085235   313.9035   1   9   0.0103   0.0097   0.0228  -0.0043  -0.0063  -0.0075   4.00   37.4
2018/11/25 00:04:37.000   39.980560631  141.225085266   313.8954   1   9   0.0101   0.0097   0.0227  -0.0042  -0.0062  -0.0077   0.00   37.2
2018/11/25 00:04:38.000   39.980560659  141.225085239   313.8950   1   9   0.0100   0.0097   0.0226  -0.0041  -0.0061  -0.0078   1.00   36.9
2018/11/25 00:04:39.000   39.980560658  141.225085246   313.8967   1   9   0.0099   0.0097   0.0225  -0.0040  -0.0060  -0.0078   2.00   36.6
2018/11/25 00:04:40.000   39.980560671  141.225085225   313.8937   1   9   0.0098   0.0097   0.0225  -0.0040  -0.0060  -0.0079   3.00   36.2
2018/11/25 00:04:41.000   39.980560684  141.225085196   313.8971   1   9   0.0098   0.0097   0.0224  -0.0040  -0.0060  -0.0079   4.00   35.9
2018/11/25 00:04:42.000   39.980560738  141.225085295   313.8822   1   8   0.0129   0.0127   0.0338   0.0074  -0.0156  -0.0166   0.00   44.3
2018/11/25 00:04:43.000   39.980560773  141.225085288   313.8744   1   8   0.0130   0.0128   0.0344   0.0076  -0.0159  -0.0170   1.00   43.5
2018/11/25 00:04:44.000   39.980560760  141.225085300   313.8766   1   8   0.0129   0.0128   0.0343   0.0076  -0.0158  -0.0170   2.00   42.6
2018/11/25 00:04:45.000   39.980560809  141.225085263   313.8741   1   8   0.0129   0.0128   0.0343   0.0076  -0.0158  -0.0171   3.00   42.0
2018/11/25 00:04:46.000   39.980560828  141.225085280   313.8670   1   8   0.0129   0.0128   0.0344   0.0076  -0.0157  -0.0171   4.00   41.3
2018/11/25 00:04:47.000   39.980560798  141.225085295   313.8729   1   8   0.0129   0.0128   0.0344   0.0076  -0.0157  -0.0171   0.00   40.6
2018/11/25 00:04:48.000   39.980560799  141.225085225   313.8869   1   8   0.0129   0.0129   0.0345   0.0076  -0.0156  -0.0172   1.00   39.9
2018/11/25 00:04:49.000   39.980560821  141.225085223   313.8804   1   8   0.0129   0.0129   0.0345   0.0075  -0.0156  -0.0172   2.00   39.1
2018/11/25 00:04:50.000   39.980560816  141.225085208   313.8845   1   8   0.0129   0.0129   0.0346   0.0075  -0.0155  -0.0173   3.00   38.3
2018/11/25 00:04:51.000   39.980560826  141.225085163   313.8823   1   8   0.0129   0.0130   0.0348   0.0074  -0.0153  -0.0174   4.00   37.5
2018/11/25 00:04:52.000   39.980560747  141.225085187   313.8897   1   8   0.0130   0.0131   0.0351   0.0073  -0.0151  -0.0175   0.00   37.2
2018/11/25 00:04:53.000   39.980560792  141.225085184   313.8810   1   8   0.0130   0.0130   0.0350   0.0074  -0.0152  -0.0174   1.00   36.9
2018/11/25 00:04:54.000   39.980560792  141.225085178   313.8841   1   8   0.0129   0.0130   0.0348   0.0074  -0.0154  -0.0173   2.00   36.4
2018/11/25 00:04:55.000   39.980560778  141.225085094   313.8935   1   8   0.0129   0.0130   0.0347   0.0075  -0.0154  -0.0173   3.00   35.9
2018/11/25 00:04:56.000   39.980560810  141.225085113   313.8880   1   8   0.0129   0.0129   0.0346   0.0075  -0.0155  -0.0173   4.00   35.5
2018/11/25 00:04:57.000   39.980560759  141.225085085   313.8954   1   8   0.0129   0.0129   0.0346   0.0075  -0.0155  -0.0173   0.00   35.3
2018/11/25 00:04:58.000   39.980560748  141.225085088   313.8985   1   8   0.0129   0.0129   0.0345   0.0075  -0.0156  -0.0172   1.00   35.0
2018/11/25 00:04:59.000   39.980560743  141.225085046   313.9033   1   8   0.0129   0.0128   0.0345   0.0076  -0.0156  -0.0172   2.00   34.7
2018/11/25 00:05:00.000   39.980560762  141.225085082   313.8970   1   8   0.0129   0.0128   0.0345   0.0076  -0.0157  -0.0172   3.00   34.4
2018/11/25 00:05:01.000   39.980560729  141.225085084   313.9036   1   8   0.0129   0.0128   0.0345   0.0076  -0.0157  -0.0172   4.00   34.0
2018/11/25 00:05:02.000   39.980560639  141.225085184   313.8897   1   8   0.0129   0.0128   0.0345   0.0076  -0.0158  -0.0171   0.00   34.4
2018/11/25 00:05:03.000   39.980560631  141.225085126   313.8923   1   8   0.0129   0.0128   0.0345   0.0076  -0.0158  -0.0171   1.00   34.6
2018/11/25 00:05:04.000   39.980560608  141.225085123   313.8953   1   8   0.0129   0.0128   0.0344   0.0076  -0.0158  -0.0171   2.00   34.9
2018/11/25 00:05:05.000   39.980560624  141.225085098   313.8977   1   8   0.0129   0.0128   0.0344   0.0076  -0.0158  -0.0171   3.00   35.1
2018/11/25 00:05:06.000   39.980560642  141.225085102   313.8941   1   8   0.0129   0.0128   0.0343   0.0076  -0.0158  -0.0171   4.00   35.2
2018/11/25 00:05:07.000   39.980560594  141.225085171   313.8951   1   8   0.0129   0.0127   0.0343   0.0076  -0.0158  -0.0171   0.00   35.6
2018/11/25 00:05:08.000   39.980560598  141.225085164   313.8906   1   8   0.0129   0.0127   0.0343   0.0076  -0.0158  -0.0171   1.00   36.1
2018/11/25 00:05:09.000   39.980560605  141.225085151   313.8936   1   8   0.0129   0.0127   0.0343   0.0076  -0.0158  -0.0171   2.00   36.5
2018/11/25 00:05:10.000   39.980560601  141.225085169   313.8972   1   8   0.0129   0.0127   0.0343   0.0076  -0.0157  -0.0171   3.00   36.6
2018/11/25 00:05:11.000   39.980560628  141.225085155   313.8973   1   8   0.0129   0.0127   0.0343   0.0076  -0.0157  -0.0171   4.00   36.8
2018/11/25 00:05:12.000   39.980560622  141.225085158   313.8960   1   8   0.0129   0.0127   0.0343   0.0076  -0.0157  -0.0171   0.00   37.0
2018/11/25 00:05:13.000   39.980560642  141.225085135   313.8987   1   8   0.0129   0.0127   0.0343   0.0076  -0.0157  -0.0171   1.00   37.0
2018/11/25 00:05:14.000   39.980560616  141.225085149   313.9011   1   8   0.0129   0.0127   0.0342   0.0076  -0.0157  -0.0171   2.00   37.1
2018/11/25 00:05:15.000   39.980560649  141.225085180   313.8961   1   8   0.0129   0.0127   0.0342   0.0076  -0.0157  -0.0171   3.00   37.1
2018/11/25 00:05:16.000   39.980560634  141.225085173   313.9041   1   8   0.0129   0.0127   0.0342   0.0076  -0.0157  -0.0171   4.00   36.9
2018/11/25 00:05:17.000   39.980560659  141.225085232   313.9012   1   8   0.0129   0.0127   0.0342   0.0076  -0.0157  -0.0171   0.00   36.9
2018/11/25 00:05:18.000   39.980560693  141.225085245   313.8959   1   8   0.0129   0.0127   0.0342   0.0076  -0.0157  -0.0171   1.00   36.9
2018/11/25 00:05:19.000   39.980560696  141.225085232   313.8985   1   8   0.0129   0.0127   0.0342   0.0076  -0.0157  -0.0171   2.00   37.0
2018/11/25 00:05:20.000   39.980560727  141.225085248   313.8840   1   8   0.0129   0.0127   0.0342   0.0076  -0.0157  -0.0171   3.00   37.2
2018/11/25 00:05:21.000   39.980560755  141.225085251   313.8844   1   8   0.0129   0.0127   0.0342   0.0076  -0.0157  -0.0171   4.00   37.2
2018/11/25 00:05:22.000   39.980560770  141.225085304   313.8770   1   8   0.0129   0.0127   0.0342   0.0076  -0.0157  -0.0171   0.00   37.5
2018/11/25 00:05:23.000   39.980560800  141.225085339   313.8695   1   8   0.0129   0.0127   0.0342   0.0076  -0.0157  -0.0171   1.00   37.6
2018/11/25 00:05:24.000   39.980560804  141.225085359   313.8646   1   8   0.0129   0.0127   0.0342   0.0076  -0.0157  -0.0171   2.00   37.8
2018/11/25 00:05:25.000   39.980560833  141.225085354   313.8691   1   8   0.0129   0.0127   0.0342   0.0076  -0.0157  -0.0171   3.00   38.0
2018/11/25 00:05:26.000   39.980560873  141.225085372   313.8624   1   8   0.0129   0.0127   0.0342   0.0076  -0.0157  -0.0171   4.00   38.0
2018/11/25 00:05:27.000   39.980560868  141.225085409   313.8577   1   8   0.0129   0.0127   0.0342   0.0076  -0.0157  -0.0171   0.00   38.2
2018/11/25 00:05:28.000   39.980560840  141.225085423   313.8671   1   8   0.0129   0.0127   0.0342   0.0076  -0.0157  -0.0171   1.00   38.4
2018/11/25 00:05:29.000   39.980560882  141.225085452   313.8600   1   8   0.0129   0.0127   0.0342   0.0076  -0.0157  -0.0171   2.00   38.4
2018/11/25 00:05:30.000   39.980560876  141.225085438   313.8642   1   8   0.0129   0.0127   0.0342   0.0076  -0.0157  -0.0171   3.00   38.5
2018/11/25 00:05:31.000   39.980560888  141.225085458   313.8569   1   8   0.0129   0.0127   0.0342   0.0076  -0.0157  -0.0171   4.00   38.6
2018/11/25 00:05:32.000   39.980560798  141.225085494   313.8543   1   8   0.0129   0.0127   0.0342   0.0076  -0.0157  -0.0171   0.00   39.4
2018/11/25 00:05:33.000   39.980560810  141.225085510   313.8512   1   8   0.0129   0.0127   0.0343   0.0076  -0.0157  -0.0172   1.00   40.3
2018/11/25 00:05:34.000   39.980560805  141.225085548   313.8506   1   8   0.0130   0.0127   0.0344   0.0077  -0.0157  -0.0173   2.00   40.8
2018/11/25 00:05:35.000   39.980560820  141.225085490   313.8602   1   8   0.0131   0.0127   0.0347   0.0077  -0.0158  -0.0175   3.00   41.5
2018/11/25 00:05:36.000   39.980560828  141.225085512   313.8578   1   8   0.0133   0.0127   0.0351   0.0079  -0.0160  -0.0178   4.00   41.8
2018/11/25 00:05:37.000   39.980560714  141.225085492   313.8701   1   8   0.0135   0.0128   0.0356   0.0080  -0.0161  -0.0182   0.00   42.4
2018/11/25 00:05:38.000   39.980560703  141.225085501   313.8646   1   8   0.0136   0.0128   0.0360   0.0081  -0.0162  -0.0184   1.00   43.0
2018/11/25 00:05:39.000   39.980560706  141.225085496   313.8593   1   8   0.0137   0.0128   0.0363   0.0082  -0.0163  -0.0186   2.00   43.5
2018/11/25 00:05:40.000   39.980560724  141.225085536   313.8551   1   8   0.0137   0.0128   0.0363   0.0082  -0.0163  -0.0186   3.00   43.9
2018/11/25 00:05:41.000   39.980560740  141.225085547   313.8521   1   8   0.0137   0.0128   0.0362   0.0081  -0.0162  -0.0185   4.00   44.3
2018/11/25 00:05:42.000   39.980560735  141.225085546   313.8416   1   8   0.0135   0.0128   0.0360   0.0080  -0.0161  -0.0183   0.00   44.7
2018/11/25 00:05:43.000   39.980560753  141.225085553   313.8463   1   8   0.0134   0.0127   0.0358   0.0080  -0.0161  -0.0182   1.00   44.9
2018/11/25 00:05:44.000   39.980560758  141.225085566   313.8443   1   8   0.0133   0.0127   0.0356   0.0079  -0.0160  -0.0180   2.00   45.1
2018/11/25 00:05:45.000   39.980560771  141.225085517   313.8429   1   8   0.0132   0.0127   0.0353   0.0078  -0.0159  -0.0178   3.00   45.6
2018/11/25 00:05:46.000   39.980560758  141.225085546   313.8414   1   8   0.0132   0.0127   0.0351   0.0078  -0.0159  -0.0177   4.00   45.7
2018/11/25 00:05:47.000   39.980560708  141.225085532   313.8484   1   8   0.0131   0.0127   0.0349   0.0077  -0.0158  -0.0176   0.00   45.7
2018/11/25 00:05:48.000   39.980560718  141.225085501   313.8541   1   8   0.0131   0.0127   0.0348   0.0077  -0.0158  -0.0175   1.00   45.7
2018/11/25 00:05:49.000   39.980560710  141.225085506   313.8553   1   8   0.0130   0.0127   0.0347   0.0077  -0.0157  -0.0174   2.00   45.7
2018/11/25 00:05:50.000   39.980560714  141.225085487   313.8525   1   8   0.0130   0.0127   0.0346   0.0077  -0.0157  -0.0174   3.00   45.6
2018/11/25 00:05:51.000   39.980560733  141.225085495   313.8473   1   8   0.0130   0.0127   0.0345   0.0076  -0.0157  -0.0173   4.00   45.4
2018/11/25 00:05:52.000   39.980560698  141.225085440   313.8567   1   8   0.0130   0.0126   0.0344   0.0076  -0.0157  -0.0173   0.00   45.3
2018/11/25 00:05:53.000   39.980560687  141.225085421   313.8534   1   8   0.0129   0.0126   0.0344   0.0076  -0.0156  -0.0173   1.00   45.2
2018/11/25 00:05:54.000   39.980560688  141.225085415   313.8551   1   8   0.0129   0.0126   0.0343   0.0076  -0.0156  -0.0173   2.00   44.8
2018/11/25 00:05:55.000   39.980560710  141.225085431   313.8459   1   8   0.0129   0.0126   0.0343   0.0076  -0.0156  -0.0172   3.00   44.5
2018/11/25 00:05:56.000   39.980560720  141.225085398   313.8488   1   8   0.0129   0.0126   0.0343   0.0076  -0.0156  -0.0172   4.00   44.2
2018/11/25 00:05:57.000   39.980560655  141.225085398   313.8565   1   8   0.0129   0.0126   0.0343   0.0076  -0.0156  -0.0172   0.00   44.1
2018/11/25 00:05:58.000   39.980560672  141.225085386   313.8582   1   8   0.0129   0.0126   0.0342   0.0076  -0.0156  -0.0172   1.00   43.9
2018/11/25 00:05:59.000   39.980560674  141.225085429   313.8530   1   8   0.0129   0.0126   0.0342   0.0076  -0.0156  -0.0172   2.00   43.5
2018/11/25 00:06:00.000   39.980560668  141.225085410   313.8543   1   8   0.0129   0.0126   0.0342   0.0076  -0.0156  -0.0172   3.00   43.2
2018/11/25 00:06:01.000   39.980560643  141.225085424   313.8530   1   8   0.0129   0.0126   0.0343   0.0075  -0.0156  -0.0172   4.00   42.8
2018/11/25 00:06:02.000   39.980560554  141.225085261   313.8802   1   8   0.0129   0.0127   0.0344   0.0075  -0.0157  -0.0171   0.00   42.8
2018/11/25 00:06:03.000   39.980560571  141.225085268   313.8743   1   8   0.0129   0.0127   0.0343   0.0075  -0.0157  -0.0171   1.00   42.7
2018/11/25 00:06:04.000   39.980560593  141.225085297   313.8685   1   8   0.0129   0.0126   0.0343   0.0075  -0.0156  -0.0171   2.00   42.5
2018/11/25 00:06:05.000   39.980560595  141.225085260   313.8667   1   8   0.0129   0.0126   0.0343   0.0075  -0.0156  -0.0171   3.00   42.3
2018/11/25 00:06:06.000   39.980560619  141.225085259   313.8659   1   8   0.0129   0.0126   0.0343   0.0075  -0.0156  -0.0171   4.00   42.1
2018/11/25 00:06:07.000   39.980560560  141.225085272   313.8763   1   8   0.0129   0.0126   0.0343   0.0075  -0.0156  -0.0171   0.00   42.1
2018/11/25 00:06:08.000   39.980560591  141.225085244   313.8733   1   8   0.0129   0.0126   0.0343   0.0075  -0.0156  -0.0171   1.00   42.1
2018/11/25 00:06:09.000   39.980560572  141.225085260   313.8766   1   8   0.0129   0.0126   0.0342   0.0075  -0.0156  -0.0171   2.00   42.0
2018/11/25 00:06:10.000   39.980560585  141.225085245   313.8729   1   8   0.0129   0.0126   0.0342   0.0075  -0.0156  -0.0171   3.00   41.9
2018/11/25 00:06:11.000   39.980560570  141.225085256   313.8704   1   8   0.0129   0.0126   0.0342   0.0075  -0.0156  -0.0171   4.00   41.6
2018/11/25 00:06:12.000   39.980560588  141.225085241   313.8679   1   8   0.0129   0.0126   0.0342   0.0075  -0.0156  -0.0171   0.00   41.4
