% program   : RTKLIB ver.2.4.2
% inp file  : ../../data/0627239Q.bnx
% inp file  : ../../data/sept_2019239.nav
% inp file  : ../../data/2019239Q.l6
% obs start : 2019/08/27 16:00:02.0 UTC (week2068 230420.0s)
% obs end   : 2019/08/27 17:00:00.0 UTC (week2068 234018.0s)
% pos mode  : ppp-rtk
% solution  : forward
% elev mask : 15.0 deg
% dynamics  : on
% tidecorr  : on
% tropo opt : off
% ephemeris : broadcast+ssr apc
% navi sys  : gps galileo qzss
% antenna1  : TRM59800.80     NONE  ( 0.0000  0.0000  0.0000)
%
% (lat/lon/height=WGS84/ellipsoidal,Q=1:fix,2:float,3:sbas,4:dgps,5:single,6:ppp,ns=# of satellites)
%  UTC                   latitude(deg) longitude(deg)  height(m)   Q  ns   sdn(m)   sde(m)   sdu(m)  sdne(m)  sdeu(m)  sdun(m) age(s)  ratio
2019/08/27 16:00:02.000   36.103633488  140.086319382    70.0983   2  11   0.3768   0.3616   1.0373  -0.0909   0.0705  -0.4157   0.00    0.0
2019/08/27 16:00:03.000   36.103634195  140.086318758    69.7745   2  11   0.2669   0.2562   0.7350  -0.0645   0.0507  -0.2945   1.00    0.0
2019/08/27 16:00:04.000   36.103633684  140.086318135    69.6201   2  11   0.2182   0.2095   0.6009  -0.0528   0.0419  -0.2407   2.00    0.0
2019/08/27 16:00:05.000   36.103633430  140.086318071    69.6264   2  11   0.1891   0.1817   0.5210  -0.0458   0.0367  -0.2087   3.00    0.0
2019/08/27 16:00:06.000   36.103633250  140.086317776    69.6575   2  11   0.1693   0.1627   0.4664  -0.0410   0.0332  -0.1868   4.00    0.0
2019/08/27 16:00:07.000   36.103633650  140.086318499    69.7999   1  11   0.0110   0.0110   0.0308  -0.0020   0.0027  -0.0121   0.00   10.2
2019/08/27 16:00:08.000   36.103633662  140.086318436    69.7923   1  11   0.0107   0.0107   0.0299  -0.0019   0.0022  -0.0117   1.00  999.9
2019/08/27 16:00:09.000   36.103633633  140.086318488    69.8062   1  11   0.0104   0.0105   0.0291  -0.0019   0.0020  -0.0114   2.00  999.9
2019/08/27 16:00:10.000   36.103633632  140.086318485    69.7945   1  11   0.0101   0.0103   0.0285  -0.0019   0.0019  -0.0111   3.00  999.9
2019/08/27 16:00:11.000   36.103633614  140.086318473    69.7908   1  11   0.0100   0.0101   0.0280  -0.0019   0.0018  -0.0109   4.00  999.9
2019/08/27 16:00:12.000   36.103633621  140.086318479    69.8033   1  11   0.0098   0.0100   0.0275  -0.0019   0.0018  -0.0108   0.00  999.9
2019/08/27 16:00:13.000   36.103633617  140.086318461    69.8121   1  11   0.0097   0.0099   0.0272  -0.0020   0.0017  -0.0107   1.00  999.9
2019/08/27 16:00:14.000   36.103633618  140.086318452    69.8041   1  11   0.0096   0.0098   0.0270  -0.0020   0.0017  -0.0106   2.00  999.9
2019/08/27 16:00:15.000   36.103633649  140.086318431    69.8087   1  11   0.0095   0.0097   0.0267  -0.0019   0.0017  -0.0105   3.00  999.9
2019/08/27 16:00:16.000   36.103633610  140.086318411    69.8007   1  11   0.0095   0.0096   0.0266  -0.0019   0.0017  -0.0104   4.00  999.9
2019/08/27 16:00:17.000   36.103633615  140.086318447    69.8004   1  11   0.0094   0.0095   0.0264  -0.0019   0.0017  -0.0103   0.00  999.9
2019/08/27 16:00:18.000   36.103633630  140.086318425    69.8136   1  11   0.0094   0.0095   0.0263  -0.0019   0.0017  -0.0103   1.00  999.9
2019/08/27 16:00:19.000   36.103633621  140.086318414    69.8032   1  11   0.0094   0.0094   0.0262  -0.0019   0.0018  -0.0103   2.00  999.9
2019/08/27 16:00:20.000   36.103633626  140.086318400    69.8000   1  11   0.0094   0.0094   0.0262  -0.0019   0.0018  -0.0103   3.00  999.9
2019/08/27 16:00:21.000   36.103633666  140.086318383    69.8085   1  11   0.0093   0.0094   0.0261  -0.0019   0.0019  -0.0102   4.00  999.9
2019/08/27 16:00:22.000   36.103633615  140.086318400    69.8078   1  11   0.0093   0.0093   0.0260  -0.0019   0.0019  -0.0102   0.00  999.9
2019/08/27 16:00:23.000   36.103633630  140.086318393    69.8073   1  11   0.0093   0.0093   0.0260  -0.0019   0.0019  -0.0102   1.00  999.9
2019/08/27 16:00:24.000   36.103633659  140.086318350    69.7977   1  11   0.0093   0.0093   0.0260  -0.0019   0.0019  -0.0102   2.00  999.9
2019/08/27 16:00:25.000   36.103633638  140.086318368    69.8065   1  11   0.0093   0.0093   0.0259  -0.0018   0.0019  -0.0102   3.00  999.9
2019/08/27 16:00:26.000   36.103633602  140.086318358    69.8029   1  11   0.0093   0.0093   0.0259  -0.0019   0.0020  -0.0102   4.00  999.9
2019/08/27 16:00:27.000   36.103633653  140.086318449    69.8142   1  11   0.0095   0.0095   0.0267  -0.0029  -0.0032  -0.0095   0.00  999.9
2019/08/27 16:00:28.000   36.103633645  140.086318436    69.8062   1  11   0.0091   0.0091   0.0264  -0.0040   0.0009  -0.0090   1.00  999.9
2019/08/27 16:00:29.000   36.103633698  140.086318453    69.8001   1  11   0.0090   0.0089   0.0262  -0.0043   0.0025  -0.0087   2.00  999.9
2019/08/27 16:00:30.000   36.103633688  140.086318395    69.8193   1  11   0.0089   0.0088   0.0262  -0.0044   0.0029  -0.0086   3.00  999.9
2019/08/27 16:00:31.000   36.103633671  140.086318420    69.8112   1  11   0.0089   0.0088   0.0261  -0.0044   0.0030  -0.0085   4.00  999.9
2019/08/27 16:00:32.000   36.103633699  140.086318477    69.8139   1  11   0.0087   0.0086   0.0260  -0.0048   0.0038  -0.0082   0.00  196.4
2019/08/27 16:00:33.000   36.103633683  140.086318450    69.8005   1  11   0.0087   0.0085   0.0260  -0.0049   0.0039  -0.0082   1.00  999.9
2019/08/27 16:00:34.000   36.103633743  140.086318423    69.7923   1  11   0.0086   0.0085   0.0259  -0.0049   0.0039  -0.0082   2.00  999.9
2019/08/27 16:00:35.000   36.103633717  140.086318427    69.8015   1  11   0.0086   0.0085   0.0259  -0.0049   0.0040  -0.0081   3.00  999.9
2019/08/27 16:00:36.000   36.103633725  140.086318452    69.7973   1  11   0.0086   0.0085   0.0259  -0.0049   0.0040  -0.0081   4.00  999.9
2019/08/27 16:00:37.000   36.103633713  140.086318415    69.8025   1  11   0.0086   0.0085   0.0259  -0.0049   0.0040  -0.0081   0.00  999.9
2019/08/27 16:00:38.000   36.103633713  140.086318403    69.7905   1  11   0.0086   0.0085   0.0259  -0.0049   0.0040  -0.0081   1.00  999.9
2019/08/27 16:00:39.000   36.103633715  140.086318425    69.7993   1  11   0.0086   0.0085   0.0259  -0.0049   0.0040  -0.0081   2.00  999.9
2019/08/27 16:00:40.000   36.103633744  140.086318413    69.8008   1  11   0.0086   0.0085   0.0259  -0.0050   0.0041  -0.0081   3.00  999.9
2019/08/27 16:00:41.000   36.103633740  140.086318374    69.8133   1  11   0.0087   0.0085   0.0259  -0.0050   0.0041  -0.0081   4.00  999.9
2019/08/27 16:00:42.000   36.103633756  140.086318371    69.8185   1  11   0.0087   0.0085   0.0259  -0.0050   0.0041  -0.0081   0.00  999.9
2019/08/27 16:00:43.000   36.103633746  140.086318375    69.8117   1  11   0.0087   0.0085   0.0259  -0.0051   0.0041  -0.0081   1.00  999.9
2019/08/27 16:00:44.000   36.103633714  140.086318330    69.8003   1  11   0.0087   0.0085   0.0259  -0.0051   0.0041  -0.0081   2.00  999.9
2019/08/27 16:00:45.000   36.103633737  140.086318347    69.8068   1  11   0.0088   0.0086   0.0259  -0.0053   0.0042  -0.0082   3.00  999.9
2019/08/27 16:00:46.000   36.103633735  140.086318332    69.8039   1  11   0.0090   0.0087   0.0259  -0.0055   0.0044  -0.0083   4.00  999.9
2019/08/27 16:00:47.000   36.103633743  140.086318346    69.8179   1  11   0.0092   0.0089   0.0259  -0.0058   0.0045  -0.0084   0.00  999.9
2019/08/27 16:00:48.000   36.103633669  140.086318332    69.7789   1  11   0.0092   0.0088   0.0259  -0.0057   0.0045  -0.0084   1.00  999.9
2019/08/27 16:00:49.000   36.103633768  140.086318319    69.8158   1  11   0.0093   0.0089   0.0260  -0.0059   0.0046  -0.0084   2.00  999.9
2019/08/27 16:00:50.000   36.103633717  140.086318331    69.8206   1  11   0.0092   0.0089   0.0260  -0.0058   0.0045  -0.0083   3.00  999.9
2019/08/27 16:00:51.000   36.103633721  140.086318278    69.8014   1  11   0.0092   0.0089   0.0259  -0.0057   0.0045  -0.0083   4.00  999.9
2019/08/27 16:00:52.000   36.103633741  140.086318281    69.8044   1  11   0.0091   0.0088   0.0259  -0.0057   0.0045  -0.0083   0.00  999.9
2019/08/27 16:00:53.000   36.103633739  140.086318310    69.8090   1  11   0.0090   0.0087   0.0259  -0.0055   0.0044  -0.0083   1.00  999.9
2019/08/27 16:00:54.000   36.103633767  140.086318267    69.8060   1  11   0.0089   0.0087   0.0259  -0.0054   0.0044  -0.0082   2.00  999.9
2019/08/27 16:00:55.000   36.103633742  140.086318253    69.8028   1  11   0.0089   0.0087   0.0259  -0.0054   0.0043  -0.0082   3.00  999.9
2019/08/27 16:00:56.000   36.103633771  140.086318260    69.8172   1  11   0.0088   0.0087   0.0259  -0.0053   0.0043  -0.0082   4.00  999.9
2019/08/27 16:00:57.000   36.103633642  140.086318435    69.8051   1  11   0.0089   0.0106   0.0307  -0.0059   0.0108  -0.0092   0.00  999.9
2019/08/27 16:00:58.000   36.103633592  140.086318445    69.8109   1  11   0.0087   0.0105   0.0307  -0.0057   0.0112  -0.0096   1.00  999.9
2019/08/27 16:00:59.000   36.103633622  140.086318422    69.7930   1  11   0.0087   0.0104   0.0305  -0.0056   0.0112  -0.0097   2.00  999.9
2019/08/27 16:01:00.000   36.103633597  140.086318513    69.7915   1  11   0.0087   0.0104   0.0304  -0.0055   0.0112  -0.0097   3.00  999.9
2019/08/27 16:01:01.000   36.103633608  140.086318547    69.8081   1  11   0.0086   0.0104   0.0304  -0.0054   0.0112  -0.0097   4.00  999.9
2019/08/27 16:01:02.000   36.103633568  140.086318622    69.8103   1  11   0.0086   0.0104   0.0302  -0.0052   0.0114  -0.0099   0.00  166.4
2019/08/27 16:01:03.000   36.103633578  140.086318573    69.7865   1  11   0.0087   0.0107   0.0302  -0.0049   0.0114  -0.0099   1.00  999.9
2019/08/27 16:01:04.000   36.103633605  140.086318643    69.7898   1  11   0.0088   0.0112   0.0302  -0.0046   0.0114  -0.0099   2.00  999.9
2019/08/27 16:01:05.000   36.103633582  140.086318596    69.7841   1  11   0.0089   0.0117   0.0302  -0.0043   0.0115  -0.0098   3.00  999.9
2019/08/27 16:01:06.000   36.103633618  140.086318762    69.8217   1  11   0.0090   0.0123   0.0303  -0.0044   0.0116  -0.0098   4.00  999.9
2019/08/27 16:01:07.000   36.103633593  140.086318772    69.8068   1  11   0.0091   0.0130   0.0303  -0.0045   0.0117  -0.0098   0.00  999.9
2019/08/27 16:01:08.000   36.103633637  140.086318739    69.8028   1  11   0.0091   0.0133   0.0302  -0.0052   0.0119  -0.0099   1.00  999.9
2019/08/27 16:01:09.000   36.103633629  140.086318725    69.8107   1  11   0.0091   0.0133   0.0302  -0.0052   0.0119  -0.0099   2.00  999.9
2019/08/27 16:01:10.000   36.103633624  140.086318743    69.8049   1  11   0.0090   0.0129   0.0302  -0.0055   0.0119  -0.0099   3.00  999.9
2019/08/27 16:01:11.000   36.103633596  140.086318766    69.8020   1  11   0.0089   0.0124   0.0302  -0.0056   0.0118  -0.0099   4.00  999.9
2019/08/27 16:01:12.000   36.103633590  140.086318754    69.7966   1  11   0.0088   0.0121   0.0302  -0.0055   0.0117  -0.0099   0.00  999.9
2019/08/27 16:01:13.000   36.103633595  140.086318720    69.8074   1  11   0.0089   0.0127   0.0302  -0.0052   0.0118  -0.0099   1.00  999.9
2019/08/27 16:01:14.000   36.103633609  140.086318805    69.7945   1  11   0.0090   0.0129   0.0302  -0.0050   0.0118  -0.0099   2.00  999.9
2019/08/27 16:01:15.000   36.103633619  140.086318785    69.8094   1  11   0.0089   0.0125   0.0302  -0.0049   0.0117  -0.0098   3.00  999.9
2019/08/27 16:01:16.000   36.103633576  140.086318803    69.8037   1  11   0.0089   0.0125   0.0302  -0.0050   0.0117  -0.0098   4.00  999.9
2019/08/27 16:01:17.000   36.103633575  140.086318642    69.8028   1  11   0.0088   0.0120   0.0301  -0.0052   0.0117  -0.0098   0.00  999.9
2019/08/27 16:01:18.000   36.103633581  140.086318691    69.8045   1  11   0.0087   0.0117   0.0302  -0.0052   0.0116  -0.0098   1.00  999.9
2019/08/27 16:01:19.000   36.103633552  140.086318655    69.8009   1  11   0.0087   0.0113   0.0302  -0.0053   0.0114  -0.0097   2.00  999.9
2019/08/27 16:01:20.000   36.103633579  140.086318656    69.8147   1  11   0.0087   0.0112   0.0303  -0.0053   0.0113  -0.0096   3.00  999.9
2019/08/27 16:01:21.000   36.103633565  140.086318665    69.7931   1  11   0.0087   0.0113   0.0303  -0.0051   0.0113  -0.0096   4.00  999.9
2019/08/27 16:01:22.000   36.103633630  140.086318591    69.7929   1  11   0.0087   0.0112   0.0304  -0.0051   0.0112  -0.0095   0.00  999.9
2019/08/27 16:01:23.000   36.103633605  140.086318598    69.7942   1  11   0.0086   0.0110   0.0303  -0.0051   0.0112  -0.0095   1.00  999.9
2019/08/27 16:01:24.000   36.103633565  140.086318625    69.8033   1  11   0.0086   0.0109   0.0303  -0.0051   0.0113  -0.0096   2.00  999.9
2019/08/27 16:01:25.000   36.103633570  140.086318569    69.7687   1  11   0.0087   0.0109   0.0304  -0.0051   0.0112  -0.0095   3.00  999.9
2019/08/27 16:01:26.000   36.103633619  140.086318702    69.8023   1  11   0.0086   0.0108   0.0304  -0.0051   0.0112  -0.0095   4.00  999.9
2019/08/27 16:01:27.000   36.103633628  140.086318543    69.7941   1  11   0.0086   0.0108   0.0303  -0.0050   0.0113  -0.0096   0.00  999.9
2019/08/27 16:01:28.000   36.103633612  140.086318497    69.7942   1  11   0.0088   0.0114   0.0302  -0.0046   0.0114  -0.0097   1.00  999.9
2019/08/27 16:01:29.000   36.103633594  140.086318555    69.8029   1  11   0.0089   0.0120   0.0302  -0.0050   0.0116  -0.0098   2.00  999.9
2019/08/27 16:01:30.000   36.103633565  140.086318660    69.8021   1  11   0.0090   0.0128   0.0302  -0.0056   0.0119  -0.0099   3.00  999.9
2019/08/27 16:01:31.000   36.103633575  140.086318576    69.7809   1  11   0.0090   0.0130   0.0302  -0.0058   0.0119  -0.0099   4.00  999.9
2019/08/27 16:01:32.000   36.103633603  140.086318615    69.7874   1  11   0.0089   0.0127   0.0303  -0.0056   0.0118  -0.0098   0.00  999.9
2019/08/27 16:01:33.000   36.103633589  140.086318579    69.7916   1  11   0.0089   0.0124   0.0302  -0.0056   0.0118  -0.0098   1.00  999.9
2019/08/27 16:01:34.000   36.103633603  140.086318645    69.8022   1  11   0.0088   0.0119   0.0302  -0.0056   0.0117  -0.0098   2.00  999.9
2019/08/27 16:01:35.000   36.103633613  140.086318628    69.7924   1  11   0.0087   0.0118   0.0302  -0.0056   0.0117  -0.0098   3.00  999.9
2019/08/27 16:01:36.000   36.103633593  140.086318619    69.8125   1  11   0.0087   0.0116   0.0302  -0.0057   0.0116  -0.0098   4.00  999.9
2019/08/27 16:01:37.000   36.103633639  140.086318526    69.7857   1  11   0.0087   0.0115   0.0302  -0.0056   0.0116  -0.0098   0.00  999.9
2019/08/27 16:01:38.000   36.103633640  140.086318569    69.7977   1  11   0.0086   0.0113   0.0301  -0.0055   0.0116  -0.0098   1.00  999.9
2019/08/27 16:01:39.000   36.103633610  140.086318500    69.7824   1  11   0.0086   0.0112   0.0302  -0.0056   0.0115  -0.0098   2.00  999.9
2019/08/27 16:01:40.000   36.103633642  140.086318574    69.7839   1  11   0.0086   0.0111   0.0302  -0.0056   0.0115  -0.0098   3.00  999.9
2019/08/27 16:01:41.000   36.103633669  140.086318559    69.8090   1  11   0.0086   0.0110   0.0302  -0.0057   0.0115  -0.0098   4.00  999.9
2019/08/27 16:01:42.000   36.103633666  140.086318516    69.7903   1  11   0.0086   0.0111   0.0302  -0.0058   0.0115  -0.0098   0.00  999.9
2019/08/27 16:01:43.000   36.103633694  140.086318533    69.7869   1  11   0.0086   0.0110   0.0302  -0.0058   0.0115  -0.0098   1.00  999.9
2019/08/27 16:01:44.000   36.103633674  140.086318455    69.7632   1  11   0.0086   0.0111   0.0302  -0.0058   0.0116  -0.0099   2.00  999.9
2019/08/27 16:01:45.000   36.103633672  140.086318457    69.7604   1  11   0.0087   0.0113   0.0302  -0.0060   0.0117  -0.0099   3.00  999.9
2019/08/27 16:01:46.000   36.103633687  140.086318509    69.7880   1  11   0.0086   0.0112   0.0301  -0.0060   0.0117  -0.0099   4.00  999.9
2019/08/27 16:01:47.000   36.103633675  140.086318554    69.7973   1  11   0.0086   0.0110   0.0301  -0.0058   0.0116  -0.0099   0.00  999.9
2019/08/27 16:01:48.000   36.103633678  140.086318487    69.7820   1  11   0.0085   0.0108   0.0301  -0.0057   0.0116  -0.0099   1.00  999.9
2019/08/27 16:01:49.000   36.103633671  140.086318497    69.7907   1  11   0.0085   0.0107   0.0301  -0.0056   0.0115  -0.0099   2.00  999.9
2019/08/27 16:01:50.000   36.103633672  140.086318481    69.7892   1  11   0.0085   0.0106   0.0301  -0.0055   0.0115  -0.0099   3.00  999.9
2019/08/27 16:01:51.000   36.103633689  140.086318495    69.7797   1  11   0.0085   0.0106   0.0301  -0.0055   0.0115  -0.0099   4.00  999.9
2019/08/27 16:01:52.000   36.103633635  140.086318568    69.7948   1  11   0.0085   0.0106   0.0301  -0.0055   0.0115  -0.0099   0.00  999.9
2019/08/27 16:01:53.000   36.103633632  140.086318504    69.8069   1  11   0.0085   0.0105   0.0300  -0.0055   0.0115  -0.0099   1.00  999.9
2019/08/27 16:01:54.000   36.103633653  140.086318541    69.8019   1  11   0.0084   0.0105   0.0300  -0.0054   0.0115  -0.0099   2.00  999.9
2019/08/27 16:01:55.000   36.103633627  140.086318576    69.8186   1  11   0.0084   0.0104   0.0300  -0.0054   0.0115  -0.0099   3.00  999.9
2019/08/27 16:01:56.000   36.103633603  140.086318483    69.7863   1  11   0.0084   0.0104   0.0300  -0.0053   0.0115  -0.0098   4.00  999.9
2019/08/27 16:01:57.000   36.103633661  140.086318464    69.7772   1  11   0.0084   0.0103   0.0300  -0.0053   0.0115  -0.0099   0.00  999.9
2019/08/27 16:01:58.000   36.103633659  140.086318482    69.7846   1  11   0.0084   0.0103   0.0300  -0.0053   0.0115  -0.0098   1.00  999.9
2019/08/27 16:01:59.000   36.103633659  140.086318476    69.7959   1  11   0.0084   0.0103   0.0301  -0.0053   0.0115  -0.0098   2.00  999.9
2019/08/27 16:02:00.000   36.103633642  140.086318510    69.7877   1  11   0.0084   0.0103   0.0301  -0.0053   0.0115  -0.0098   3.00  999.9
2019/08/27 16:02:01.000   36.103633685  140.086318465    69.7845   1  11   0.0085   0.0104   0.0301  -0.0054   0.0115  -0.0099   4.00  999.9
2019/08/27 16:02:02.000   36.103633660  140.086318433    69.7691   1  11   0.0084   0.0104   0.0301  -0.0054   0.0115  -0.0099   0.00  999.9
2019/08/27 16:02:03.000   36.103633648  140.086318381    69.7737   1  11   0.0085   0.0105   0.0301  -0.0055   0.0116  -0.0099   1.00  999.9
2019/08/27 16:02:04.000   36.103633667  140.086318513    69.8040   1  11   0.0085   0.0105   0.0302  -0.0056   0.0115  -0.0098   2.00  999.9
2019/08/27 16:02:05.000   36.103633665  140.086318486    69.8088   1  11   0.0085   0.0105   0.0302  -0.0055   0.0115  -0.0098   3.00  999.9
2019/08/27 16:02:06.000   36.103633691  140.086318442    69.7697   1  11   0.0087   0.0106   0.0302  -0.0056   0.0116  -0.0100   4.00  999.9
2019/08/27 16:02:07.000   36.103633681  140.086318452    69.7833   1  11   0.0087   0.0105   0.0302  -0.0055   0.0116  -0.0100   0.00  999.9
2019/08/27 16:02:08.000   36.103633704  140.086318443    69.7896   1  11   0.0087   0.0105   0.0302  -0.0055   0.0116  -0.0100   1.00  999.9
2019/08/27 16:02:09.000   36.103633728  140.086318371    69.7505   1  11   0.0089   0.0106   0.0302  -0.0055   0.0116  -0.0101   2.00  999.9
2019/08/27 16:02:10.000   36.103633730  140.086318399    69.7664   1  11   0.0088   0.0107   0.0302  -0.0056   0.0116  -0.0100   3.00  999.9
2019/08/27 16:02:11.000   36.103633742  140.086318413    69.7768   1  11   0.0087   0.0106   0.0302  -0.0055   0.0116  -0.0100   4.00  999.9
2019/08/27 16:02:12.000   36.103633721  140.086318457    69.7917   1  11   0.0086   0.0105   0.0301  -0.0054   0.0115  -0.0099   0.00  999.9
2019/08/27 16:02:13.000   36.103633714  140.086318358    69.7703   1  11   0.0086   0.0104   0.0301  -0.0054   0.0115  -0.0099   1.00  999.9
2019/08/27 16:02:14.000   36.103633736  140.086318328    69.7459   1  11   0.0086   0.0104   0.0301  -0.0054   0.0115  -0.0099   2.00  999.9
2019/08/27 16:02:15.000   36.103633761  140.086318432    69.7799   1  11   0.0087   0.0105   0.0301  -0.0055   0.0116  -0.0100   3.00  999.9
2019/08/27 16:02:16.000   36.103633735  140.086318311    69.7429   1  11   0.0088   0.0105   0.0302  -0.0055   0.0116  -0.0101   4.00  999.9
2019/08/27 16:02:17.000   36.103633707  140.086318359    69.7890   1  11   0.0089   0.0107   0.0302  -0.0056   0.0117  -0.0101   0.00  999.9
2019/08/27 16:02:18.000   36.103633700  140.086318363    69.7809   1  11   0.0088   0.0107   0.0302  -0.0056   0.0117  -0.0101   1.00  999.9
2019/08/27 16:02:19.000   36.103633733  140.086318294    69.7687   1  11   0.0088   0.0109   0.0302  -0.0057   0.0118  -0.0101   2.00  999.9
2019/08/27 16:02:20.000   36.103633733  140.086318317    69.7711   1  11   0.0087   0.0109   0.0302  -0.0057   0.0118  -0.0100   3.00  999.9
2019/08/27 16:02:21.000   36.103633711  140.086318317    69.7627   1  11   0.0087   0.0108   0.0302  -0.0057   0.0117  -0.0100   4.00  999.9
2019/08/27 16:02:22.000   36.103633706  140.086318334    69.7626   1  11   0.0087   0.0111   0.0302  -0.0059   0.0119  -0.0101   0.00  999.9
2019/08/27 16:02:23.000   36.103633691  140.086318311    69.7730   1  11   0.0086   0.0109   0.0302  -0.0058   0.0118  -0.0100   1.00  999.9
2019/08/27 16:02:24.000   36.103633693  140.086318327    69.7882   1  11   0.0086   0.0109   0.0302  -0.0058   0.0118  -0.0100   2.00  999.9
2019/08/27 16:02:25.000   36.103633715  140.086318309    69.7780   1  11   0.0086   0.0109   0.0302  -0.0058   0.0118  -0.0100   3.00  999.9
2019/08/27 16:02:26.000   36.103633738  140.086318300    69.7770   1  11   0.0086   0.0110   0.0303  -0.0059   0.0118  -0.0101   4.00  999.9
2019/08/27 16:02:27.000   36.103633656  140.086318350    69.7676   1  11   0.0097   0.0130   0.0303  -0.0033   0.0119  -0.0103   0.00  999.9
2019/08/27 16:02:28.000   36.103633716  140.086318400    69.7881   1  11   0.0098   0.0119   0.0288  -0.0038   0.0095  -0.0105   1.00  999.9
2019/08/27 16:02:29.000   36.103633667  140.086318446    69.7802   1  11   0.0097   0.0115   0.0279  -0.0036   0.0081  -0.0104   2.00  999.9
2019/08/27 16:02:30.000   36.103633659  140.086318426    69.7919   1  11   0.0096   0.0117   0.0275  -0.0037   0.0075  -0.0103   3.00  999.9
2019/08/27 16:02:31.000   36.103633634  140.086318496    69.7857   1  11   0.0096   0.0118   0.0273  -0.0040   0.0072  -0.0103   4.00  999.9
2019/08/27 16:02:32.000   36.103633631  140.086318544    69.7889   1  11   0.0096   0.0111   0.0263  -0.0039   0.0042  -0.0102   0.00   70.9
2019/08/27 16:02:33.000   36.103633636  140.086318506    69.7855   1  11   0.0094   0.0109   0.0262  -0.0037   0.0041  -0.0101   1.00  848.7
2019/08/27 16:02:34.000   36.103633622  140.086318509    69.7934   1  11   0.0094   0.0105   0.0261  -0.0035   0.0039  -0.0101   2.00  999.9
2019/08/27 16:02:35.000   36.103633658  140.086318551    69.7979   1  11   0.0093   0.0102   0.0261  -0.0032   0.0037  -0.0101   3.00  999.9
2019/08/27 16:02:36.000   36.103633630  140.086318605    69.7825   1  11   0.0093   0.0101   0.0260  -0.0031   0.0036  -0.0100   4.00  999.9
2019/08/27 16:02:37.000   36.103633557  140.086318547    69.7881   1  11   0.0093   0.0102   0.0260  -0.0031   0.0034  -0.0100   0.00  999.9
2019/08/27 16:02:38.000   36.103633585  140.086318602    69.7961   1  11   0.0092   0.0101   0.0260  -0.0030   0.0032  -0.0100   1.00  999.9
2019/08/27 16:02:39.000   36.103633583  140.086318541    69.7986   1  11   0.0092   0.0100   0.0260  -0.0029   0.0032  -0.0100   2.00  999.9
2019/08/27 16:02:40.000   36.103633605  140.086318584    69.8183   1  11   0.0092   0.0098   0.0259  -0.0028   0.0031  -0.0100   3.00  999.9
2019/08/27 16:02:41.000   36.103633601  140.086318597    69.8020   1  11   0.0092   0.0097   0.0259  -0.0027   0.0032  -0.0100   4.00  999.9
2019/08/27 16:02:42.000   36.103633590  140.086318598    69.8023   1  11   0.0091   0.0096   0.0259  -0.0026   0.0031  -0.0100   0.00  999.9
2019/08/27 16:02:43.000   36.103633600  140.086318625    69.8049   1  11   0.0091   0.0095   0.0259  -0.0026   0.0031  -0.0100   1.00  999.9
2019/08/27 16:02:44.000   36.103633570  140.086318678    69.8122   1  11   0.0091   0.0095   0.0259  -0.0025   0.0031  -0.0100   2.00  999.9
2019/08/27 16:02:45.000   36.103633548  140.086318682    69.8024   1  11   0.0091   0.0095   0.0259  -0.0025   0.0031  -0.0100   3.00  999.9
2019/08/27 16:02:46.000   36.103633593  140.086318706    69.7968   1  11   0.0091   0.0095   0.0259  -0.0025   0.0031  -0.0100   4.00  999.9
2019/08/27 16:02:47.000   36.103633619  140.086318671    69.8009   1  11   0.0091   0.0095   0.0259  -0.0025   0.0031  -0.0100   0.00  999.9
2019/08/27 16:02:48.000   36.103633620  140.086318730    69.7991   1  11   0.0091   0.0097   0.0259  -0.0027   0.0030  -0.0099   1.00  999.9
2019/08/27 16:02:49.000   36.103633617  140.086318748    69.8142   1  11   0.0091   0.0098   0.0259  -0.0028   0.0030  -0.0099   2.00  999.9
2019/08/27 16:02:50.000   36.103633602  140.086318745    69.8084   1  11   0.0091   0.0100   0.0259  -0.0029   0.0029  -0.0099   3.00  999.9
2019/08/27 16:02:51.000   36.103633639  140.086318757    69.8008   1  11   0.0092   0.0105   0.0259  -0.0033   0.0026  -0.0099   4.00  999.9
2019/08/27 16:02:52.000   36.103633622  140.086318723    69.8117   1  11   0.0092   0.0109   0.0259  -0.0036   0.0024  -0.0099   0.00  999.9
2019/08/27 16:02:53.000   36.103633618  140.086318648    69.8028   1  11   0.0092   0.0110   0.0259  -0.0036   0.0024  -0.0099   1.00  999.9
2019/08/27 16:02:54.000   36.103633574  140.086318697    69.8071   1  11   0.0092   0.0112   0.0259  -0.0037   0.0023  -0.0099   2.00  999.9
2019/08/27 16:02:55.000   36.103633582  140.086318621    69.8133   1  11   0.0092   0.0109   0.0259  -0.0035   0.0024  -0.0099   3.00  999.9
2019/08/27 16:02:56.000   36.103633616  140.086318641    69.8180   1  11   0.0092   0.0109   0.0259  -0.0035   0.0026  -0.0099   4.00  999.9
2019/08/27 16:02:57.000   36.103633581  140.086318537    69.7919   1  11   0.0095   0.0113   0.0268  -0.0045  -0.0037  -0.0090   0.00  999.9
2019/08/27 16:02:58.000   36.103633587  140.086318520    69.8016   1  11   0.0092   0.0106   0.0266  -0.0051  -0.0008  -0.0086   1.00  999.9
2019/08/27 16:02:59.000   36.103633618  140.086318529    69.8126   1  11   0.0091   0.0104   0.0263  -0.0055   0.0024  -0.0083   2.00  999.9
2019/08/27 16:03:00.000   36.103633577  140.086318571    69.8093   1  11   0.0090   0.0101   0.0262  -0.0054   0.0029  -0.0083   3.00  999.9
2019/08/27 16:03:01.000   36.103633570  140.086318603    69.8013   1  11   0.0089   0.0098   0.0262  -0.0053   0.0032  -0.0083   4.00  999.9
2019/08/27 16:03:02.000   36.103633568  140.086318495    69.8092   1  11   0.0088   0.0092   0.0260  -0.0054   0.0043  -0.0081   0.00  158.0
2019/08/27 16:03:03.000   36.103633578  140.086318487    69.8078   1  11   0.0087   0.0092   0.0260  -0.0055   0.0044  -0.0080   1.00  999.9
2019/08/27 16:03:04.000   36.103633586  140.086318494    69.8058   1  11   0.0088   0.0092   0.0259  -0.0056   0.0044  -0.0080   2.00  999.9
2019/08/27 16:03:05.000   36.103633609  140.086318517    69.8092   1  11   0.0087   0.0091   0.0259  -0.0055   0.0045  -0.0080   3.00  999.9
2019/08/27 16:03:06.000   36.103633590  140.086318519    69.8152   1  11   0.0087   0.0090   0.0259  -0.0054   0.0045  -0.0080   4.00  999.9
2019/08/27 16:03:07.000   36.103633617  140.086318469    69.8072   1  11   0.0087   0.0089   0.0259  -0.0053   0.0046  -0.0081   0.00  999.9
2019/08/27 16:03:08.000   36.103633653  140.086318481    69.7970   1  11   0.0086   0.0088   0.0259  -0.0053   0.0046  -0.0081   1.00  999.9
2019/08/27 16:03:09.000   36.103633652  140.086318457    69.8104   1  11   0.0086   0.0088   0.0259  -0.0053   0.0046  -0.0081   2.00  999.9
2019/08/27 16:03:10.000   36.103633698  140.086318416    69.7942   1  11   0.0086   0.0087   0.0258  -0.0052   0.0046  -0.0081   3.00  999.9
2019/08/27 16:03:11.000   36.103633694  140.086318430    69.7867   1  11   0.0086   0.0087   0.0258  -0.0052   0.0047  -0.0081   4.00  999.9
2019/08/27 16:03:12.000   36.103633726  140.086318446    69.8084   1   9   0.0091   0.0087   0.0341  -0.0051   0.0056  -0.0008   0.00  999.9
2019/08/27 16:03:13.000   36.103633724  140.086318410    69.8235   1   9   0.0091   0.0087   0.0346  -0.0051   0.0057   0.0013   1.00  999.9
2019/08/27 16:03:14.000   36.103633725  140.086318384    69.8257   1   9   0.0091   0.0086   0.0346  -0.0051   0.0057   0.0014   2.00  999.9
2019/08/27 16:03:15.000   36.103633735  140.086318425    69.8217   1   9   0.0092   0.0087   0.0346  -0.0052   0.0056   0.0018   3.00  999.9
2019/08/27 16:03:16.000   36.103633703  140.086318442    69.8321   1   9   0.0094   0.0087   0.0347  -0.0053   0.0055   0.0024   4.00  999.9
2019/08/27 16:03:17.000   36.103633716  140.086318430    69.8187   1   9   0.0098   0.0089   0.0348  -0.0057   0.0052   0.0036   0.00  999.9
2019/08/27 16:03:18.000   36.103633714  140.086318415    69.8035   1   9   0.0103   0.0091   0.0349  -0.0062   0.0048   0.0045   1.00  999.9
2019/08/27 16:03:19.000   36.103633684  140.086318471    69.8083   1   9   0.0104   0.0091   0.0349  -0.0063   0.0047   0.0046   2.00  999.9
2019/08/27 16:03:20.000   36.103633686  140.086318471    69.8065   1   9   0.0104   0.0092   0.0349  -0.0064   0.0047   0.0046   3.00  999.9
2019/08/27 16:03:21.000   36.103633731  140.086318417    69.8082   1   9   0.0103   0.0091   0.0349  -0.0064   0.0047   0.0045   4.00  999.9
2019/08/27 16:03:22.000   36.103633665  140.086318427    69.8011   1   9   0.0101   0.0090   0.0349  -0.0061   0.0050   0.0042   0.00  999.9
2019/08/27 16:03:23.000   36.103633677  140.086318437    69.7950   1   9   0.0099   0.0089   0.0349  -0.0059   0.0052   0.0037   1.00  999.9
2019/08/27 16:03:24.000   36.103633693  140.086318404    69.8101   1   9   0.0098   0.0089   0.0348  -0.0058   0.0053   0.0035   2.00  999.9
2019/08/27 16:03:25.000   36.103633706  140.086318411    69.8170   1   9   0.0097   0.0088   0.0348  -0.0057   0.0054   0.0034   3.00  999.9
2019/08/27 16:03:26.000   36.103633715  140.086318378    69.8247   1   9   0.0097   0.0088   0.0348  -0.0057   0.0054   0.0032   4.00  999.9
2019/08/27 16:03:27.000   36.103633659  140.086318405    69.8012   1  11   0.0096   0.0088   0.0348  -0.0055   0.0055   0.0030   0.00  999.9
2019/08/27 16:03:28.000   36.103633664  140.086318409    69.8108   1  11   0.0093   0.0088   0.0326  -0.0054   0.0065  -0.0047   1.00  999.9
2019/08/27 16:03:29.000   36.103633705  140.086318389    69.8184   1  11   0.0094   0.0089   0.0312  -0.0056   0.0067  -0.0059   2.00  999.9
2019/08/27 16:03:30.000   36.103633718  140.086318382    69.8106   1  11   0.0096   0.0090   0.0307  -0.0057   0.0068  -0.0063   3.00  999.9
2019/08/27 16:03:31.000   36.103633722  140.086318373    69.8181   1  11   0.0096   0.0091   0.0305  -0.0057   0.0068  -0.0065   4.00  999.9
2019/08/27 16:03:32.000   36.103633682  140.086318407    69.8237   1  11   0.0094   0.0090   0.0289  -0.0053   0.0075  -0.0083   0.00   52.3
2019/08/27 16:03:33.000   36.103633668  140.086318372    69.8212   1  11   0.0094   0.0091   0.0287  -0.0054   0.0075  -0.0084   1.00  636.2
2019/08/27 16:03:34.000   36.103633682  140.086318335    69.8276   1  11   0.0093   0.0091   0.0286  -0.0053   0.0075  -0.0085   2.00  999.9
2019/08/27 16:03:35.000   36.103633713  140.086318323    69.8222   1  11   0.0090   0.0089   0.0285  -0.0051   0.0076  -0.0085   3.00  999.9
2019/08/27 16:03:36.000   36.103633731  140.086318310    69.8243   1  11   0.0089   0.0089   0.0285  -0.0050   0.0076  -0.0085   4.00  999.9
2019/08/27 16:03:37.000   36.103633695  140.086318376    69.8235   1  11   0.0089   0.0090   0.0284  -0.0051   0.0076  -0.0085   0.00  999.9
2019/08/27 16:03:38.000   36.103633729  140.086318374    69.8125   1  11   0.0088   0.0088   0.0284  -0.0049   0.0076  -0.0085   1.00  999.9
2019/08/27 16:03:39.000   36.103633729  140.086318360    69.8147   1  11   0.0087   0.0087   0.0283  -0.0048   0.0076  -0.0085   2.00  999.9
2019/08/27 16:03:40.000   36.103633721  140.086318351    69.8146   1  11   0.0086   0.0087   0.0283  -0.0048   0.0076  -0.0085   3.00  999.9
2019/08/27 16:03:41.000   36.103633686  140.086318345    69.8243   1  11   0.0085   0.0087   0.0283  -0.0048   0.0076  -0.0084   4.00  999.9
2019/08/27 16:03:42.000   36.103633671  140.086318378    69.8262   1  11   0.0085   0.0087   0.0283  -0.0048   0.0076  -0.0084   0.00  999.9
2019/08/27 16:03:43.000   36.103633707  140.086318384    69.8318   1  11   0.0085   0.0088   0.0283  -0.0049   0.0076  -0.0084   1.00  999.9
2019/08/27 16:03:44.000   36.103633715  140.086318395    69.8371   1  11   0.0085   0.0089   0.0283  -0.0050   0.0076  -0.0084   2.00  999.9
2019/08/27 16:03:45.000   36.103633670  140.086318433    69.8274   1  11   0.0085   0.0089   0.0283  -0.0050   0.0076  -0.0084   3.00  999.9
2019/08/27 16:03:46.000   36.103633650  140.086318458    69.8228   1  11   0.0085   0.0089   0.0282  -0.0049   0.0076  -0.0084   4.00  999.9
2019/08/27 16:03:47.000   36.103633681  140.086318463    69.8049   1  11   0.0085   0.0089   0.0282  -0.0050   0.0076  -0.0084   0.00  999.9
2019/08/27 16:03:48.000   36.103633658  140.086318513    69.8155   1  11   0.0085   0.0089   0.0282  -0.0050   0.0076  -0.0084   1.00  999.9
2019/08/27 16:03:49.000   36.103633630  140.086318555    69.8110   1  11   0.0084   0.0088   0.0282  -0.0049   0.0077  -0.0084   2.00  999.9
2019/08/27 16:03:50.000   36.103633630  140.086318604    69.8217   1  11   0.0085   0.0089   0.0283  -0.0049   0.0077  -0.0085   3.00  999.9
2019/08/27 16:03:51.000   36.103633606  140.086318616    69.8136   1  11   0.0085   0.0090   0.0284  -0.0051   0.0078  -0.0086   4.00  999.9
2019/08/27 16:03:52.000   36.103633595  140.086318621    69.8197   1  11   0.0087   0.0094   0.0286  -0.0055   0.0082  -0.0089   0.00  999.9
2019/08/27 16:03:53.000   36.103633604  140.086318575    69.8154   1  11   0.0090   0.0103   0.0289  -0.0062   0.0089  -0.0095   1.00  999.9
2019/08/27 16:03:54.000   36.103633576  140.086318589    69.8144   1  11   0.0090   0.0104   0.0290  -0.0063   0.0090  -0.0096   2.00  999.9
2019/08/27 16:03:55.000   36.103633560  140.086318607    69.8138   1  11   0.0090   0.0103   0.0289  -0.0062   0.0090  -0.0095   3.00  999.9
2019/08/27 16:03:56.000   36.103633551  140.086318625    69.8224   1  11   0.0090   0.0101   0.0290  -0.0061   0.0090  -0.0096   4.00  999.9
2019/08/27 16:03:57.000   36.103633599  140.086318610    69.7881   1  10   0.0097   0.0116   0.0293  -0.0042   0.0077  -0.0103   0.00  999.9
2019/08/27 16:03:58.000   36.103633593  140.086318645    69.8123   1  10   0.0096   0.0118   0.0292  -0.0042   0.0077  -0.0102   1.00  999.9
2019/08/27 16:03:59.000   36.103633567  140.086318637    69.8092   1  10   0.0097   0.0115   0.0293  -0.0041   0.0077  -0.0103   2.00  999.9
2019/08/27 16:04:00.000   36.103633558  140.086318635    69.8101   1  10   0.0097   0.0116   0.0293  -0.0041   0.0077  -0.0103   3.00  999.9
2019/08/27 16:04:01.000   36.103633573  140.086318660    69.8104   1  10   0.0097   0.0116   0.0293  -0.0041   0.0077  -0.0103   4.00  999.9
2019/08/27 16:04:02.000   36.103633583  140.086318588    69.8093   1  10   0.0098   0.0114   0.0296  -0.0041   0.0078  -0.0106   0.00  999.9
2019/08/27 16:04:03.000   36.103633563  140.086318576    69.8222   1  10   0.0098   0.0117   0.0296  -0.0043   0.0080  -0.0107   1.00  999.9
2019/08/27 16:04:04.000   36.103633547  140.086318652    69.8201   1  10   0.0098   0.0113   0.0296  -0.0041   0.0079  -0.0106   2.00  999.9
2019/08/27 16:04:05.000   36.103633585  140.086318660    69.8300   1  10   0.0099   0.0110   0.0298  -0.0039   0.0079  -0.0109   3.00  999.9
2019/08/27 16:04:06.000   36.103633569  140.086318669    69.8315   1  10   0.0099   0.0107   0.0300  -0.0037   0.0078  -0.0110   4.00  999.9
2019/08/27 16:04:07.000   36.103633601  140.086318553    69.8271   1  10   0.0099   0.0105   0.0299  -0.0036   0.0077  -0.0110   0.00  999.9
2019/08/27 16:04:08.000   36.103633536  140.086318623    69.8257   1  10   0.0098   0.0107   0.0297  -0.0036   0.0077  -0.0107   1.00  999.9
2019/08/27 16:04:09.000   36.103633567  140.086318640    69.8385   1  10   0.0099   0.0111   0.0298  -0.0040   0.0079  -0.0108   2.00  999.9
2019/08/27 16:04:10.000   36.103633573  140.086318639    69.8461   1  10   0.0101   0.0109   0.0302  -0.0040   0.0081  -0.0113   3.00  999.9
2019/08/27 16:04:11.000   36.103633569  140.086318666    69.8505   1  10   0.0102   0.0106   0.0304  -0.0039   0.0080  -0.0115   4.00  999.9
2019/08/27 16:04:12.000   36.103633545  140.086318705    69.8398   1  10   0.0104   0.0105   0.0307  -0.0039   0.0080  -0.0119   0.00  999.9
2019/08/27 16:04:13.000   36.103633535  140.086318678    69.8448   1  10   0.0103   0.0103   0.0307  -0.0037   0.0079  -0.0118   1.00  999.9
2019/08/27 16:04:14.000   36.103633529  140.086318713    69.8645   1  10   0.0102   0.0101   0.0305  -0.0035   0.0077  -0.0116   2.00  999.9
2019/08/27 16:04:15.000   36.103633514  140.086318714    69.8635   1  10   0.0101   0.0100   0.0303  -0.0033   0.0076  -0.0114   3.00  999.9
2019/08/27 16:04:16.000   36.103633510  140.086318732    69.8527   1  10   0.0102   0.0099   0.0305  -0.0032   0.0075  -0.0116   4.00  999.9
2019/08/27 16:04:17.000   36.103633540  140.086318646    69.8453   1  10   0.0101   0.0099   0.0305  -0.0031   0.0075  -0.0115   0.00  999.9
2019/08/27 16:04:18.000   36.103633533  140.086318686    69.8446   1  10   0.0100   0.0098   0.0302  -0.0029   0.0073  -0.0112   1.00  999.9
2019/08/27 16:04:19.000   36.103633561  140.086318659    69.8483   1  10   0.0100   0.0098   0.0302  -0.0029   0.0073  -0.0112   2.00  999.9
2019/08/27 16:04:20.000   36.103633563  140.086318683    69.8357   1  10   0.0099   0.0098   0.0299  -0.0028   0.0072  -0.0109   3.00  999.9
2019/08/27 16:04:21.000   36.103633561  140.086318670    69.8393   1  10   0.0098   0.0097   0.0297  -0.0027   0.0071  -0.0107   4.00  999.9
2019/08/27 16:04:22.000   36.103633544  140.086318654    69.8151   1  10   0.0097   0.0097   0.0294  -0.0027   0.0071  -0.0104   0.00  999.9
2019/08/27 16:04:23.000   36.103633556  140.086318659    69.8372   1  10   0.0096   0.0097   0.0292  -0.0026   0.0070  -0.0102   1.00  999.9
2019/08/27 16:04:24.000   36.103633569  140.086318655    69.8384   1  10   0.0096   0.0097   0.0291  -0.0026   0.0070  -0.0100   2.00  999.9
2019/08/27 16:04:25.000   36.103633558  140.086318647    69.8357   1  10   0.0097   0.0097   0.0290  -0.0027   0.0070  -0.0100   3.00  999.9
2019/08/27 16:04:26.000   36.103633589  140.086318613    69.8331   1  10   0.0097   0.0097   0.0290  -0.0028   0.0070  -0.0099   4.00  999.9
2019/08/27 16:04:27.000   36.103633572  140.086318433    69.8156   1  11   0.0098   0.0097   0.0290  -0.0029   0.0070  -0.0099   0.00  999.9
2019/08/27 16:04:28.000   36.103633566  140.086318425    69.8061   1  11   0.0097   0.0092   0.0288  -0.0040   0.0074  -0.0096   1.00  999.9
2019/08/27 16:04:29.000   36.103633617  140.086318419    69.8018   1  11   0.0099   0.0090   0.0287  -0.0044   0.0076  -0.0096   2.00  999.9
2019/08/27 16:04:30.000   36.103633586  140.086318388    69.8108   1  11   0.0098   0.0090   0.0286  -0.0045   0.0077  -0.0094   3.00  999.9
2019/08/27 16:04:31.000   36.103633587  140.086318453    69.8153   1  11   0.0094   0.0090   0.0286  -0.0045   0.0077  -0.0093   4.00  999.9
2019/08/27 16:04:32.000   36.103633600  140.086318429    69.8072   1  11   0.0094   0.0087   0.0285  -0.0048   0.0079  -0.0091   0.00   84.0
2019/08/27 16:04:33.000   36.103633646  140.086318446    69.8138   1  11   0.0094   0.0088   0.0285  -0.0048   0.0080  -0.0091   1.00  999.9
2019/08/27 16:04:34.000   36.103633660  140.086318455    69.8059   1  11   0.0094   0.0088   0.0285  -0.0049   0.0080  -0.0091   2.00  999.9
2019/08/27 16:04:35.000   36.103633601  140.086318472    69.8105   1  11   0.0093   0.0088   0.0285  -0.0049   0.0080  -0.0090   3.00  999.9
2019/08/27 16:04:36.000   36.103633615  140.086318435    69.8161   1  11   0.0092   0.0090   0.0284  -0.0050   0.0081  -0.0090   4.00  999.9
2019/08/27 16:04:37.000   36.103633610  140.086318470    69.8090   1  11   0.0092   0.0091   0.0284  -0.0052   0.0082  -0.0090   0.00  999.9
2019/08/27 16:04:38.000   36.103633615  140.086318500    69.7979   1  11   0.0091   0.0090   0.0284  -0.0051   0.0081  -0.0089   1.00  999.9
2019/08/27 16:04:39.000   36.103633591  140.086318481    69.7987   1  11   0.0094   0.0090   0.0284  -0.0052   0.0081  -0.0090   2.00  999.9
2019/08/27 16:04:40.000   36.103633636  140.086318482    69.8021   1  11   0.0092   0.0089   0.0284  -0.0051   0.0081  -0.0089   3.00  999.9
2019/08/27 16:04:41.000   36.103633590  140.086318507    69.8077   1  11   0.0090   0.0089   0.0284  -0.0050   0.0081  -0.0088   4.00  999.9
2019/08/27 16:04:42.000   36.103633628  140.086318506    69.7944   1  11   0.0090   0.0088   0.0284  -0.0049   0.0080  -0.0088   0.00  999.9
2019/08/27 16:04:43.000   36.103633637  140.086318476    69.8108   1  11   0.0088   0.0087   0.0284  -0.0048   0.0080  -0.0087   1.00  999.9
2019/08/27 16:04:44.000   36.103633641  140.086318492    69.8141   1  11   0.0088   0.0087   0.0284  -0.0048   0.0080  -0.0087   2.00  999.9
2019/08/27 16:04:45.000   36.103633621  140.086318523    69.8178   1  11   0.0088   0.0086   0.0284  -0.0047   0.0080  -0.0087   3.00  999.9
2019/08/27 16:04:46.000   36.103633621  140.086318532    69.8184   1  11   0.0089   0.0086   0.0284  -0.0048   0.0080  -0.0087   4.00  999.9
2019/08/27 16:04:47.000   36.103633611  140.086318516    69.8181   1  11   0.0089   0.0086   0.0284  -0.0047   0.0080  -0.0087   0.00  999.9
2019/08/27 16:04:48.000   36.103633637  140.086318524    69.8244   1  11   0.0092   0.0086   0.0284  -0.0048   0.0080  -0.0089   1.00  999.9
2019/08/27 16:04:49.000   36.103633603  140.086318512    69.8263   1  11   0.0091   0.0086   0.0284  -0.0047   0.0080  -0.0088   2.00  999.9
2019/08/27 16:04:50.000   36.103633617  140.086318542    69.8206   1  11   0.0090   0.0085   0.0284  -0.0047   0.0080  -0.0088   3.00  999.9
2019/08/27 16:04:51.000   36.103633604  140.086318540    69.8280   1  11   0.0089   0.0085   0.0284  -0.0047   0.0080  -0.0087   4.00  999.9
2019/08/27 16:04:52.000   36.103633618  140.086318475    69.8125   1  11   0.0090   0.0085   0.0284  -0.0047   0.0080  -0.0087   0.00  999.9
2019/08/27 16:04:53.000   36.103633641  140.086318494    69.8151   1  11   0.0090   0.0085   0.0284  -0.0047   0.0080  -0.0088   1.00  999.9
2019/08/27 16:04:54.000   36.103633648  140.086318464    69.8100   1  11   0.0091   0.0085   0.0284  -0.0047   0.0080  -0.0088   2.00  999.9
2019/08/27 16:04:55.000   36.103633611  140.086318490    69.8031   1  11   0.0089   0.0085   0.0284  -0.0047   0.0080  -0.0087   3.00  999.9
2019/08/27 16:04:56.000   36.103633640  140.086318495    69.8175   1  11   0.0088   0.0085   0.0284  -0.0047   0.0080  -0.0087   4.00  999.9
2019/08/27 16:04:57.000   36.103633658  140.086318501    69.7926   1  11   0.0086   0.0085   0.0284  -0.0046   0.0080  -0.0086   0.00  999.9
2019/08/27 16:04:58.000   36.103633635  140.086318494    69.7806   1  11   0.0086   0.0085   0.0284  -0.0046   0.0080  -0.0086   1.00  999.9
2019/08/27 16:04:59.000   36.103633664  140.086318492    69.7722   1  11   0.0086   0.0085   0.0284  -0.0046   0.0080  -0.0086   2.00  999.9
2019/08/27 16:05:00.000   36.103633669  140.086318490    69.7925   1  11   0.0086   0.0085   0.0284  -0.0046   0.0080  -0.0086   3.00  999.9
2019/08/27 16:05:01.000   36.103633624  140.086318506    69.7825   1  11   0.0087   0.0085   0.0284  -0.0047   0.0080  -0.0086   4.00  999.9
2019/08/27 16:05:02.000   36.103633686  140.086318454    69.7711   1  11   0.0088   0.0085   0.0284  -0.0047   0.0080  -0.0086   0.00  999.9
2019/08/27 16:05:03.000   36.103633688  140.086318465    69.7726   1  11   0.0088   0.0085   0.0284  -0.0047   0.0080  -0.0087   1.00  999.9
2019/08/27 16:05:04.000   36.103633715  140.086318487    69.7812   1  11   0.0088   0.0085   0.0284  -0.0047   0.0080  -0.0087   2.00  999.9
2019/08/27 16:05:05.000   36.103633675  140.086318485    69.7816   1  11   0.0087   0.0085   0.0284  -0.0047   0.0080  -0.0086   3.00  999.9
2019/08/27 16:05:06.000   36.103633694  140.086318507    69.7835   1  11   0.0086   0.0085   0.0284  -0.0047   0.0080  -0.0086   4.00  999.9
2019/08/27 16:05:07.000   36.103633676  140.086318515    69.7908   1  11   0.0088   0.0085   0.0284  -0.0047   0.0080  -0.0087   0.00  999.9
2019/08/27 16:05:08.000   36.103633688  140.086318503    69.7727   1  11   0.0090   0.0085   0.0284  -0.0047   0.0080  -0.0087   1.00  999.9
2019/08/27 16:05:09.000   36.103633693  140.086318485    69.7844   1  11   0.0089   0.0085   0.0284  -0.0048   0.0080  -0.0087   2.00  999.9
2019/08/27 16:05:10.000   36.103633675  140.086318483    69.7800   1  11   0.0090   0.0086   0.0284  -0.0048   0.0081  -0.0088   3.00  999.9
2019/08/27 16:05:11.000   36.103633691  140.086318530    69.7784   1  11   0.0091   0.0086   0.0284  -0.0049   0.0081  -0.0088   4.00  999.9
2019/08/27 16:05:12.000   36.103633695  140.086318529    69.7724   1  11   0.0092   0.0086   0.0285  -0.0050   0.0081  -0.0089   0.00  999.9
2019/08/27 16:05:13.000   36.103633708  140.086318531    69.7878   1  11   0.0093   0.0087   0.0285  -0.0052   0.0082  -0.0089   1.00  999.9
2019/08/27 16:05:14.000   36.103633677  140.086318548    69.7918   1  11   0.0091   0.0087   0.0285  -0.0051   0.0082  -0.0088   2.00  999.9
2019/08/27 16:05:15.000   36.103633703  140.086318513    69.7816   1  11   0.0092   0.0087   0.0285  -0.0051   0.0082  -0.0089   3.00  999.9
2019/08/27 16:05:16.000   36.103633702  140.086318531    69.7818   1  11   0.0092   0.0087   0.0285  -0.0052   0.0082  -0.0089   4.00  999.9
2019/08/27 16:05:17.000   36.103633678  140.086318554    69.7814   1  11   0.0091   0.0088   0.0285  -0.0053   0.0082  -0.0089   0.00  999.9
2019/08/27 16:05:18.000   36.103633687  140.086318573    69.7869   1  11   0.0090   0.0088   0.0285  -0.0053   0.0082  -0.0088   1.00  999.9
2019/08/27 16:05:19.000   36.103633674  140.086318557    69.7890   1  11   0.0090   0.0087   0.0285  -0.0052   0.0082  -0.0088   2.00  999.9
2019/08/27 16:05:20.000   36.103633679  140.086318554    69.7945   1  11   0.0089   0.0087   0.0285  -0.0052   0.0082  -0.0088   3.00  999.9
2019/08/27 16:05:21.000   36.103633678  140.086318563    69.7884   1  11   0.0088   0.0087   0.0285  -0.0051   0.0082  -0.0087   4.00  999.9
2019/08/27 16:05:22.000   36.103633662  140.086318555    69.7814   1  11   0.0088   0.0087   0.0285  -0.0051   0.0082  -0.0087   0.00  999.9
2019/08/27 16:05:23.000   36.103633700  140.086318580    69.7814   1  11   0.0088   0.0087   0.0285  -0.0051   0.0081  -0.0087   1.00  999.9
2019/08/27 16:05:24.000   36.103633678  140.086318549    69.7947   1  11   0.0088   0.0088   0.0285  -0.0051   0.0081  -0.0087   2.00  999.9
2019/08/27 16:05:25.000   36.103633676  140.086318506    69.7796   1  11   0.0088   0.0088   0.0285  -0.0051   0.0081  -0.0087   3.00  999.9
2019/08/27 16:05:26.000   36.103633701  140.086318543    69.7777   1  11   0.0087   0.0088   0.0285  -0.0051   0.0081  -0.0087   4.00  999.9
2019/08/27 16:05:27.000   36.103633643  140.086318545    69.7867   1   9   0.0096   0.0090   0.0347  -0.0057   0.0060   0.0027   0.00  999.9
2019/08/27 16:05:28.000   36.103633602  140.086318561    69.7819   1   9   0.0097   0.0090   0.0351  -0.0058   0.0057   0.0035   1.00  999.9
2019/08/27 16:05:29.000   36.103633572  140.086318563    69.7783   1   9   0.0099   0.0091   0.0351  -0.0060   0.0056   0.0040   2.00  999.9
2019/08/27 16:05:30.000   36.103633588  140.086318562    69.7822   1   9   0.0101   0.0092   0.0352  -0.0062   0.0052   0.0047   3.00  999.9
2019/08/27 16:05:31.000   36.103633612  140.086318561    69.7813   1   9   0.0102   0.0092   0.0353  -0.0063   0.0052   0.0049   4.00  999.9
2019/08/27 16:05:32.000   36.103633557  140.086318613    69.7752   1   9   0.0103   0.0093   0.0354  -0.0064   0.0049   0.0053   0.00  999.9
2019/08/27 16:05:33.000   36.103633576  140.086318596    69.7665   1   9   0.0102   0.0092   0.0353  -0.0062   0.0053   0.0049   1.00  999.9
2019/08/27 16:05:34.000   36.103633596  140.086318553    69.7653   1   9   0.0100   0.0091   0.0352  -0.0060   0.0056   0.0044   2.00  999.9
2019/08/27 16:05:35.000   36.103633611  140.086318574    69.7855   1   9   0.0098   0.0089   0.0352  -0.0058   0.0059   0.0038   3.00  999.9
2019/08/27 16:05:36.000   36.103633587  140.086318558    69.7815   1   9   0.0096   0.0089   0.0351  -0.0056   0.0061   0.0035   4.00  999.9
2019/08/27 16:05:37.000   36.103633571  140.086318560    69.7871   1   9   0.0096   0.0088   0.0351  -0.0056   0.0062   0.0033   0.00  999.9
2019/08/27 16:05:38.000   36.103633564  140.086318545    69.7878   1   9   0.0095   0.0088   0.0351  -0.0055   0.0062   0.0032   1.00  999.9
2019/08/27 16:05:39.000   36.103633573  140.086318530    69.7931   1   9   0.0096   0.0088   0.0351  -0.0055   0.0062   0.0034   2.00  999.9
2019/08/27 16:05:40.000   36.103633601  140.086318562    69.8105   1   9   0.0096   0.0088   0.0351  -0.0054   0.0063   0.0033   3.00  999.9
2019/08/27 16:05:41.000   36.103633632  140.086318556    69.8014   1   9   0.0096   0.0088   0.0352  -0.0054   0.0063   0.0034   4.00  999.9
2019/08/27 16:05:42.000   36.103633636  140.086318566    69.8109   1   9   0.0098   0.0088   0.0352  -0.0054   0.0062   0.0039   0.00  999.9
2019/08/27 16:05:43.000   36.103633651  140.086318554    69.8059   1   9   0.0098   0.0088   0.0352  -0.0054   0.0062   0.0040   1.00  999.9
2019/08/27 16:05:44.000   36.103633630  140.086318553    69.7996   1   9   0.0099   0.0088   0.0353  -0.0054   0.0062   0.0041   2.00  999.9
2019/08/27 16:05:45.000   36.103633658  140.086318519    69.8132   1   9   0.0104   0.0089   0.0354  -0.0055   0.0060   0.0051   3.00  999.9
2019/08/27 16:05:46.000   36.103633689  140.086318547    69.8251   1   9   0.0103   0.0090   0.0354  -0.0055   0.0059   0.0051   4.00  999.9
2019/08/27 16:05:47.000   36.103633645  140.086318537    69.8176   1   9   0.0101   0.0090   0.0354  -0.0055   0.0059   0.0048   0.00  999.9
2019/08/27 16:05:48.000   36.103633687  140.086318541    69.8135   1   9   0.0100   0.0091   0.0355  -0.0057   0.0054   0.0047   1.00  999.9
2019/08/27 16:05:49.000   36.103633709  140.086318509    69.8176   1   9   0.0098   0.0093   0.0355  -0.0058   0.0051   0.0047   2.00  999.9
2019/08/27 16:05:50.000   36.103633669  140.086318503    69.8070   1   9   0.0096   0.0091   0.0354  -0.0056   0.0055   0.0041   3.00  999.9
2019/08/27 16:05:51.000   36.103633674  140.086318523    69.8115   1   9   0.0096   0.0089   0.0353  -0.0054   0.0060   0.0037   4.00  999.9
2019/08/27 16:05:52.000   36.103633693  140.086318488    69.8067   1   9   0.0097   0.0090   0.0353  -0.0055   0.0059   0.0040   0.00  999.9
2019/08/27 16:05:53.000   36.103633679  140.086318495    69.8060   1   9   0.0098   0.0091   0.0354  -0.0056   0.0056   0.0044   1.00  999.9
2019/08/27 16:05:54.000   36.103633698  140.086318456    69.8114   1   9   0.0100   0.0092   0.0355  -0.0057   0.0053   0.0048   2.00  999.9
2019/08/27 16:05:55.000   36.103633735  140.086318462    69.8116   1   9   0.0100   0.0091   0.0355  -0.0056   0.0057   0.0046   3.00  999.9
2019/08/27 16:05:56.000   36.103633735  140.086318478    69.8211   1   9   0.0100   0.0090   0.0354  -0.0054   0.0060   0.0046   4.00  999.9
2019/08/27 16:05:57.000   36.103633771  140.086318400    69.7873   1  11   0.0101   0.0089   0.0353  -0.0054   0.0062   0.0046   0.00  999.9
2019/08/27 16:05:58.000   36.103633716  140.086318396    69.7766   1  11   0.0095   0.0088   0.0331  -0.0051   0.0071  -0.0038   1.00  999.9
2019/08/27 16:05:59.000   36.103633758  140.086318450    69.7810   1  11   0.0092   0.0087   0.0316  -0.0050   0.0074  -0.0055   2.00  999.9
2019/08/27 16:06:00.000   36.103633747  140.086318414    69.7732   1  11   0.0090   0.0087   0.0311  -0.0049   0.0075  -0.0061   3.00  999.9
2019/08/27 16:06:01.000   36.103633752  140.086318429    69.7767   1  11   0.0089   0.0086   0.0308  -0.0049   0.0076  -0.0065   4.00  999.9
2019/08/27 16:06:02.000   36.103633691  140.086318456    69.7557   1  11   0.0085   0.0086   0.0292  -0.0048   0.0080  -0.0080   0.00   81.7
2019/08/27 16:06:03.000   36.103633718  140.086318455    69.7740   1  11   0.0085   0.0086   0.0290  -0.0048   0.0080  -0.0081   1.00  973.0
2019/08/27 16:06:04.000   36.103633726  140.086318443    69.7689   1  11   0.0084   0.0087   0.0289  -0.0048   0.0081  -0.0082   2.00  999.9
2019/08/27 16:06:05.000   36.103633675  140.086318476    69.7815   1  11   0.0084   0.0086   0.0288  -0.0048   0.0081  -0.0082   3.00  999.9
2019/08/27 16:06:06.000   36.103633713  140.086318451    69.7705   1  11   0.0084   0.0087   0.0288  -0.0048   0.0081  -0.0083   4.00  999.9
2019/08/27 16:06:07.000   36.103633659  140.086318495    69.7651   1  11   0.0083   0.0086   0.0287  -0.0048   0.0081  -0.0083   0.00  999.9
2019/08/27 16:06:08.000   36.103633661  140.086318494    69.7742   1  11   0.0083   0.0086   0.0287  -0.0048   0.0081  -0.0083   1.00  999.9
2019/08/27 16:06:09.000   36.103633676  140.086318496    69.7848   1  11   0.0083   0.0086   0.0287  -0.0048   0.0082  -0.0084   2.00  999.9
2019/08/27 16:06:10.000   36.103633673  140.086318493    69.7705   1  11   0.0083   0.0086   0.0286  -0.0047   0.0082  -0.0084   3.00  999.9
2019/08/27 16:06:11.000   36.103633653  140.086318519    69.7696   1  11   0.0083   0.0086   0.0286  -0.0047   0.0082  -0.0084   4.00  999.9
2019/08/27 16:06:12.000   36.103633624  140.086318564    69.7717   1  11   0.0083   0.0086   0.0286  -0.0047   0.0082  -0.0084   0.00  999.9
2019/08/27 16:06:13.000   36.103633639  140.086318589    69.7713   1  11   0.0083   0.0086   0.0286  -0.0047   0.0082  -0.0085   1.00  999.9
2019/08/27 16:06:14.000   36.103633598  140.086318580    69.7754   1  11   0.0083   0.0086   0.0286  -0.0047   0.0082  -0.0085   2.00  999.9
2019/08/27 16:06:15.000   36.103633641  140.086318614    69.7861   1  11   0.0083   0.0085   0.0286  -0.0047   0.0082  -0.0085   3.00  999.9
2019/08/27 16:06:16.000   36.103633614  140.086318603    69.7826   1  11   0.0083   0.0085   0.0286  -0.0047   0.0082  -0.0085   4.00  999.9
2019/08/27 16:06:17.000   36.103633656  140.086318613    69.7730   1  11   0.0083   0.0085   0.0286  -0.0047   0.0082  -0.0085   0.00  999.9
2019/08/27 16:06:18.000   36.103633637  140.086318595    69.7706   1  11   0.0083   0.0085   0.0286  -0.0047   0.0082  -0.0085   1.00  999.9
2019/08/27 16:06:19.000   36.103633595  140.086318636    69.7810   1  11   0.0083   0.0085   0.0286  -0.0047   0.0082  -0.0085   2.00  999.9
2019/08/27 16:06:20.000   36.103633618  140.086318637    69.7751   1  11   0.0084   0.0085   0.0286  -0.0047   0.0082  -0.0085   3.00  999.9
2019/08/27 16:06:21.000   36.103633625  140.086318640    69.7663   1  11   0.0084   0.0085   0.0286  -0.0047   0.0083  -0.0085   4.00  999.9
2019/08/27 16:06:22.000   36.103633682  140.086318592    69.7712   1  11   0.0083   0.0085   0.0286  -0.0047   0.0083  -0.0085   0.00  999.9
2019/08/27 16:06:23.000   36.103633644  140.086318605    69.7830   1  11   0.0084   0.0085   0.0286  -0.0047   0.0083  -0.0085   1.00  999.9
2019/08/27 16:06:24.000   36.103633630  140.086318608    69.7818   1  11   0.0083   0.0085   0.0286  -0.0047   0.0083  -0.0085   2.00  999.9
2019/08/27 16:06:25.000   36.103633633  140.086318628    69.7724   1  11   0.0084   0.0085   0.0286  -0.0047   0.0083  -0.0085   3.00  999.9
2019/08/27 16:06:26.000   36.103633611  140.086318658    69.7774   1  11   0.0084   0.0085   0.0286  -0.0047   0.0083  -0.0085   4.00  999.9
2019/08/27 16:06:27.000   36.103633657  140.086318569    69.8034   1  11   0.0083   0.0085   0.0286  -0.0047   0.0083  -0.0085   0.00  999.9
2019/08/27 16:06:28.000   36.103633626  140.086318591    69.7986   1  11   0.0083   0.0086   0.0287  -0.0047   0.0083  -0.0086   1.00  999.9
2019/08/27 16:06:29.000   36.103633615  140.086318591    69.7953   1  11   0.0084   0.0087   0.0289  -0.0048   0.0083  -0.0087   2.00  999.9
2019/08/27 16:06:30.000   36.103633622  140.086318602    69.7913   1  11   0.0084   0.0091   0.0292  -0.0050   0.0084  -0.0089   3.00  999.9
2019/08/27 16:06:31.000   36.103633638  140.086318597    69.8072   1  11   0.0086   0.0096   0.0296  -0.0054   0.0086  -0.0091   4.00  999.9
2019/08/27 16:06:32.000   36.103633665  140.086318574    69.7944   1  11   0.0086   0.0100   0.0301  -0.0056   0.0089  -0.0094   0.00  999.9
2019/08/27 16:06:33.000   36.103633647  140.086318591    69.7909   1  11   0.0086   0.0098   0.0308  -0.0055   0.0089  -0.0095   1.00  999.9
2019/08/27 16:06:34.000   36.103633650  140.086318580    69.7889   1  11   0.0085   0.0095   0.0310  -0.0053   0.0088  -0.0095   2.00  999.9
2019/08/27 16:06:35.000   36.103633627  140.086318593    69.8018   1  11   0.0085   0.0094   0.0309  -0.0053   0.0087  -0.0095   3.00  999.9
2019/08/27 16:06:36.000   36.103633596  140.086318619    69.7944   1  11   0.0085   0.0093   0.0307  -0.0052   0.0086  -0.0094   4.00  999.9
2019/08/27 16:06:37.000   36.103633588  140.086318631    69.8071   1  11   0.0084   0.0093   0.0304  -0.0052   0.0086  -0.0093   0.00  999.9
2019/08/27 16:06:38.000   36.103633622  140.086318608    69.7959   1  11   0.0084   0.0092   0.0304  -0.0051   0.0086  -0.0092   1.00  999.9
2019/08/27 16:06:39.000   36.103633623  140.086318568    69.7953   1  11   0.0084   0.0093   0.0301  -0.0053   0.0087  -0.0091   2.00  999.9
2019/08/27 16:06:40.000   36.103633590  140.086318618    69.8003   1  11   0.0085   0.0095   0.0298  -0.0054   0.0089  -0.0091   3.00  999.9
2019/08/27 16:06:41.000   36.103633611  140.086318645    69.8099   1  11   0.0084   0.0094   0.0296  -0.0053   0.0088  -0.0090   4.00  999.9
2019/08/27 16:06:42.000   36.103633616  140.086318604    69.8008   1  11   0.0085   0.0096   0.0295  -0.0054   0.0089  -0.0090   0.00  999.9
2019/08/27 16:06:43.000   36.103633610  140.086318608    69.8019   1  11   0.0085   0.0096   0.0294  -0.0055   0.0089  -0.0090   1.00  999.9
2019/08/27 16:06:44.000   36.103633601  140.086318643    69.8078   1  11   0.0084   0.0094   0.0293  -0.0053   0.0088  -0.0089   2.00  999.9
2019/08/27 16:06:45.000   36.103633604  140.086318648    69.8044   1  11   0.0084   0.0092   0.0292  -0.0052   0.0087  -0.0088   3.00  999.9
2019/08/27 16:06:46.000   36.103633577  140.086318656    69.8111   1  11   0.0084   0.0091   0.0291  -0.0051   0.0086  -0.0088   4.00  999.9
2019/08/27 16:06:47.000   36.103633599  140.086318582    69.8023   1  11   0.0083   0.0090   0.0290  -0.0050   0.0086  -0.0087   0.00  999.9
2019/08/27 16:06:48.000   36.103633589  140.086318562    69.7975   1  11   0.0083   0.0089   0.0290  -0.0050   0.0085  -0.0087   1.00  999.9
2019/08/27 16:06:49.000   36.103633614  140.086318591    69.7998   1  11   0.0083   0.0088   0.0289  -0.0049   0.0085  -0.0086   2.00  999.9
2019/08/27 16:06:50.000   36.103633573  140.086318631    69.8035   1  11   0.0083   0.0088   0.0288  -0.0049   0.0084  -0.0086   3.00  999.9
2019/08/27 16:06:51.000   36.103633585  140.086318630    69.8000   1  11   0.0083   0.0087   0.0288  -0.0048   0.0084  -0.0086   4.00  999.9
2019/08/27 16:06:52.000   36.103633617  140.086318595    69.8037   1  11   0.0083   0.0087   0.0288  -0.0048   0.0084  -0.0086   0.00  999.9
2019/08/27 16:06:53.000   36.103633614  140.086318607    69.8043   1  11   0.0083   0.0087   0.0288  -0.0048   0.0084  -0.0086   1.00  999.9
2019/08/27 16:06:54.000   36.103633604  140.086318658    69.8125   1  11   0.0083   0.0086   0.0287  -0.0048   0.0084  -0.0086   2.00  999.9
2019/08/27 16:06:55.000   36.103633587  140.086318615    69.8156   1  11   0.0083   0.0086   0.0287  -0.0048   0.0084  -0.0085   3.00  999.9
2019/08/27 16:06:56.000   36.103633590  140.086318641    69.8100   1  11   0.0083   0.0086   0.0287  -0.0047   0.0084  -0.0085   4.00  999.9
2019/08/27 16:06:57.000   36.103633717  140.086318475    69.8085   1  10   0.0104   0.0086   0.0287  -0.0050   0.0084  -0.0091   0.00  999.9
2019/08/27 16:06:58.000   36.103633741  140.086318457    69.8208   1  10   0.0104   0.0086   0.0287  -0.0050   0.0084  -0.0091   1.00  999.9
2019/08/27 16:06:59.000   36.103633721  140.086318470    69.8199   1  10   0.0104   0.0086   0.0287  -0.0050   0.0084  -0.0091   2.00  999.9
2019/08/27 16:07:00.000   36.103633721  140.086318492    69.8254   1  10   0.0104   0.0086   0.0287  -0.0050   0.0084  -0.0091   3.00  999.9
2019/08/27 16:07:01.000   36.103633739  140.086318524    69.8312   1  10   0.0104   0.0086   0.0287  -0.0050   0.0084  -0.0091   4.00  999.9
