% program   : RTKLIB ver.2.4.2
% inp file  : ../../data/0627349AB.bnx
% inp file  : ../../data/sept_2019349.nav
% inp file  : ../../data/vrs2019349B.obs
% obs start : 2019/12/15 00:00:04.0 UTC (week2084     22.0s)
% obs end   : 2019/12/15 02:00:03.0 UTC (week2084   7221.0s)
% pos mode  : 
% solution  : forward
% elev mask : 15.0 deg
% dynamics  : on
% tidecorr  : off
% tropo opt : off
% ephemeris : broadcast
% navi sys  : gps galileo qzss
% antenna1  : TRM59800.80     NONE  ( 0.0000  0.0000  0.0000)
%
% (lat/lon/height=WGS84/ellipsoidal,Q=1:fix,2:float,3:sbas,4:dgps,5:single,6:ppp,ns=# of satellites)
%  UTC                   latitude(deg) longitude(deg)  height(m)   Q  ns   sdn(m)   sde(m)   sdu(m)  sdne(m)  sdeu(m)  sdun(m) age(s)  ratio
2019/12/15 00:00:04.000   36.103635185  140.086313729    70.7896   5  14   3.2692   2.7104   6.6411   1.5478  -1.8323  -3.3037   0.00    0.0
2019/12/15 00:00:05.000   36.103645820  140.086311121    68.1081   5  15   2.6851   2.3510   5.8278  -0.3470   0.9690  -2.2309   0.00    0.0
2019/12/15 00:00:06.000   36.103641334  140.086315682    69.1707   5  15   2.6851   2.3510   5.8276  -0.3480   0.9697  -2.2311   0.00    0.0
2019/12/15 00:00:07.000   36.103642568  140.086319668    68.6954   5  15   2.6852   2.3510   5.8274  -0.3489   0.9705  -2.2314   0.00    0.0
2019/12/15 00:00:08.000   36.103642893  140.086315524    68.9139   5  15   2.6852   2.3511   5.8272  -0.3499   0.9713  -2.2316   0.00    0.0
2019/12/15 00:00:09.000   36.103646553  140.086318332    68.8252   5  15   2.6853   2.3511   5.8270  -0.3509   0.9720  -2.2318   0.00    0.0
2019/12/15 00:00:10.000   36.103641830  140.086316373    68.0122   5  15   2.6853   2.3511   5.8268  -0.3519   0.9728  -2.2320   0.00    0.0
2019/12/15 00:00:11.000   36.103640540  140.086321327    69.2404   5  15   2.6854   2.3512   5.8267  -0.3529   0.9735  -2.2322   0.00    0.0
2019/12/15 00:00:12.000   36.103639514  140.086314823    70.0427   5  15   2.6854   2.3512   5.8265  -0.3539   0.9743  -2.2324   0.00    0.0
2019/12/15 00:00:13.000   36.103644793  140.086321309    68.6696   5  15   2.6855   2.3512   5.8263  -0.3548   0.9751  -2.2327   0.00    0.0
2019/12/15 00:00:14.000   36.103644012  140.086320577    69.1862   5  15   2.6855   2.3512   5.8261  -0.3558   0.9758  -2.2329   0.00    0.0
2019/12/15 00:00:15.000   36.103636475  140.086314690    69.9108   5  15   2.6856   2.3513   5.8259  -0.3568   0.9766  -2.2331   0.00    0.0
2019/12/15 00:00:16.000   36.103641909  140.086318693    68.3671   5  15   2.6856   2.3513   5.8257  -0.3578   0.9773  -2.2333   0.00    0.0
2019/12/15 00:00:17.000   36.103643812  140.086316501    69.7066   5  15   2.6857   2.3513   5.8255  -0.3587   0.9781  -2.2335   0.00    0.0
2019/12/15 00:00:18.000   36.103643964  140.086316116    68.8868   5  15   2.6857   2.3514   5.8253  -0.3597   0.9789  -2.2338   0.00    0.0
2019/12/15 00:00:19.000   36.103645213  140.086315172    68.7159   5  15   2.6858   2.3514   5.8252  -0.3607   0.9796  -2.2340   0.00    0.0
2019/12/15 00:00:20.000   36.103643441  140.086311746    69.0838   5  15   2.6858   2.3514   5.8250  -0.3616   0.9804  -2.2342   0.00    0.0
2019/12/15 00:00:21.000   36.103652068  140.086313633    66.8498   5  15   2.6859   2.3514   5.8248  -0.3626   0.9811  -2.2344   0.00    0.0
2019/12/15 00:00:22.000   36.103641460  140.086314530    67.9913   5  15   2.6859   2.3515   5.8246  -0.3635   0.9819  -2.2346   0.00    0.0
2019/12/15 00:00:23.000   36.103640414  140.086315888    68.5706   5  15   2.6860   2.3515   5.8244  -0.3645   0.9826  -2.2348   0.00    0.0
2019/12/15 00:00:24.000   36.103638811  140.086312064    69.3697   5  15   2.6861   2.3515   5.8242  -0.3654   0.9834  -2.2351   0.00    0.0
2019/12/15 00:00:25.000   36.103634516  140.086315030    69.4947   5  15   2.6861   2.3516   5.8240  -0.3664   0.9841  -2.2353   0.00    0.0
2019/12/15 00:00:26.000   36.103634360  140.086316790    70.4700   5  15   2.6862   2.3516   5.8238  -0.3673   0.9849  -2.2355   0.00    0.0
2019/12/15 00:00:27.000   36.103635439  140.086312495    69.8254   5  15   2.6862   2.3516   5.8236  -0.3683   0.9856  -2.2357   0.00    0.0
2019/12/15 00:00:28.000   36.103641020  140.086317891    69.0719   5  15   2.6863   2.3517   5.8235  -0.3692   0.9864  -2.2359   0.00    0.0
2019/12/15 00:00:29.000   36.103635048  140.086322776    69.8604   5  15   2.6863   2.3517   5.8233  -0.3701   0.9871  -2.2361   0.00    0.0
2019/12/15 00:00:30.000   36.103643218  140.086321228    67.5606   5  15   2.6864   2.3517   5.8231  -0.3711   0.9879  -2.2364   0.00    0.0
2019/12/15 00:00:31.000   36.103639218  140.086319834    69.0137   5  15   2.6864   2.3517   5.8229  -0.3720   0.9886  -2.2366   0.00    0.0
2019/12/15 00:00:32.000   36.103642228  140.086314190    68.8325   5  15   2.6865   2.3518   5.8227  -0.3729   0.9894  -2.2368   0.00    0.0
2019/12/15 00:00:33.000   36.103640467  140.086315253    69.0831   5  15   2.6865   2.3518   5.8225  -0.3739   0.9901  -2.2370   0.00    0.0
2019/12/15 00:00:34.000   36.103640686  140.086315106    68.8196   5  15   2.6866   2.3518   5.8223  -0.3748   0.9909  -2.2372   0.00    0.0
2019/12/15 00:00:35.000   36.103637765  140.086308128    68.4910   5  15   2.6866   2.3519   5.8221  -0.3757   0.9916  -2.2374   0.00    0.0
2019/12/15 00:00:36.000   36.103641070  140.086314364    67.1654   5  15   2.6867   2.3519   5.8219  -0.3767   0.9924  -2.2377   0.00    0.0
2019/12/15 00:00:37.000   36.103637425  140.086309294    68.6706   5  15   2.6867   2.3519   5.8217  -0.3776   0.9931  -2.2379   0.00    0.0
2019/12/15 00:00:38.000   36.103643714  140.086306576    67.7177   5  15   2.6868   2.3520   5.8215  -0.3785   0.9939  -2.2381   0.00    0.0
2019/12/15 00:00:39.000   36.103635658  140.086309807    68.6210   5  15   2.6868   2.3520   5.8214  -0.3794   0.9946  -2.2383   0.00    0.0
2019/12/15 00:00:40.000   36.103643651  140.086308733    69.0997   5  15   2.6869   2.3520   5.8212  -0.3803   0.9954  -2.2385   0.00    0.0
2019/12/15 00:00:41.000   36.103635966  140.086308281    68.2230   5  15   2.6869   2.3520   5.8210  -0.3812   0.9961  -2.2387   0.00    0.0
2019/12/15 00:00:42.000   36.103637497  140.086308413    68.1929   5  15   2.6870   2.3521   5.8208  -0.3822   0.9968  -2.2390   0.00    0.0
2019/12/15 00:00:43.000   36.103638265  140.086312783    68.3583   5  15   2.6871   2.3521   5.8206  -0.3831   0.9976  -2.2392   0.00    0.0
2019/12/15 00:00:44.000   36.103641927  140.086313167    67.3603   5  15   2.6871   2.3521   5.8204  -0.3840   0.9983  -2.2394   0.00    0.0
2019/12/15 00:00:45.000   36.103643602  140.086321951    68.4348   5  15   2.6872   2.3522   5.8202  -0.3849   0.9991  -2.2396   0.00    0.0
2019/12/15 00:00:46.000   36.103639724  140.086319438    69.0600   5  15   2.6872   2.3522   5.8200  -0.3858   0.9998  -2.2398   0.00    0.0
2019/12/15 00:00:47.000   36.103640714  140.086314936    68.3839   5  15   2.6873   2.3522   5.8198  -0.3867   1.0005  -2.2400   0.00    0.0
2019/12/15 00:00:48.000   36.103638617  140.086316180    68.0285   5  15   2.6873   2.3523   5.8196  -0.3876   1.0013  -2.2402   0.00    0.0
2019/12/15 00:00:49.000   36.103641911  140.086314179    67.5892   5  15   2.6874   2.3523   5.8194  -0.3885   1.0020  -2.2405   0.00    0.0
2019/12/15 00:00:50.000   36.103641076  140.086319001    68.3350   5  15   2.6874   2.3523   5.8192  -0.3894   1.0027  -2.2407   0.00    0.0
2019/12/15 00:00:51.000   36.103644914  140.086319527    66.6184   5  15   2.6875   2.3524   5.8190  -0.3903   1.0035  -2.2409   0.00    0.0
2019/12/15 00:00:52.000   36.103643177  140.086321354    68.6436   5  15   2.6875   2.3524   5.8188  -0.3912   1.0042  -2.2411   0.00    0.0
2019/12/15 00:00:53.000   36.103641960  140.086319921    68.4398   5  15   2.6876   2.3524   5.8187  -0.3921   1.0049  -2.2413   0.00    0.0
2019/12/15 00:00:54.000   36.103639336  140.086321093    68.2924   5  15   2.6876   2.3524   5.8185  -0.3930   1.0057  -2.2415   0.00    0.0
2019/12/15 00:00:55.000   36.103646217  140.086324088    67.6935   5  15   2.6877   2.3525   5.8183  -0.3938   1.0064  -2.2417   0.00    0.0
2019/12/15 00:00:56.000   36.103639735  140.086318787    68.6972   5  15   2.6877   2.3525   5.8181  -0.3947   1.0071  -2.2420   0.00    0.0
2019/12/15 00:00:57.000   36.103640768  140.086316183    67.8584   5  15   2.6878   2.3525   5.8179  -0.3956   1.0079  -2.2422   0.00    0.0
2019/12/15 00:00:58.000   36.103639039  140.086318277    67.2868   5  15   2.6878   2.3526   5.8177  -0.3965   1.0086  -2.2424   0.00    0.0
2019/12/15 00:00:59.000   36.103637085  140.086318190    67.7366   5  15   2.6879   2.3526   5.8175  -0.3974   1.0093  -2.2426   0.00    0.0
2019/12/15 00:01:00.000   36.103635776  140.086327680    68.7428   5  15   2.6879   2.3526   5.8173  -0.3982   1.0101  -2.2428   0.00    0.0
2019/12/15 00:01:01.000   36.103645439  140.086315910    67.9274   5  15   2.6880   2.3527   5.8171  -0.3991   1.0108  -2.2430   0.00    0.0
2019/12/15 00:01:02.000   36.103640754  140.086319862    69.0183   5  15   2.6881   2.3527   5.8169  -0.4000   1.0115  -2.2432   0.00    0.0
2019/12/15 00:01:03.000   36.103637707  140.086320451    68.5644   5  15   2.6881   2.3527   5.8167  -0.4009   1.0123  -2.2435   0.00    0.0
2019/12/15 00:01:04.000   36.103642503  140.086319585    67.5616   5  15   2.6882   2.3528   5.8165  -0.4017   1.0130  -2.2437   0.00    0.0
2019/12/15 00:01:05.000   36.103641303  140.086325794    67.6614   5  15   2.6882   2.3528   5.8163  -0.4026   1.0137  -2.2439   0.00    0.0
2019/12/15 00:01:06.000   36.103640815  140.086317259    67.8359   5  15   2.6883   2.3528   5.8161  -0.4035   1.0144  -2.2441   0.00    0.0
2019/12/15 00:01:07.000   36.103639562  140.086321527    67.9327   5  15   2.6883   2.3529   5.8159  -0.4043   1.0152  -2.2443   0.00    0.0
2019/12/15 00:01:08.000   36.103630969  140.086323019    68.3877   5  15   2.6884   2.3529   5.8157  -0.4052   1.0159  -2.2445   0.00    0.0
2019/12/15 00:01:09.000   36.103637319  140.086319477    68.4907   5  15   2.6884   2.3529   5.8155  -0.4061   1.0166  -2.2447   0.00    0.0
2019/12/15 00:01:10.000   36.103636967  140.086320035    67.6466   5  15   2.6885   2.3530   5.8153  -0.4069   1.0173  -2.2449   0.00    0.0
2019/12/15 00:01:11.000   36.103638878  140.086314187    66.8446   5  15   2.6885   2.3530   5.8151  -0.4078   1.0181  -2.2452   0.00    0.0
2019/12/15 00:01:12.000   36.103637755  140.086319171    67.6576   5  15   2.6886   2.3530   5.8149  -0.4086   1.0188  -2.2454   0.00    0.0
2019/12/15 00:01:13.000   36.103636060  140.086316641    67.7533   5  15   2.6886   2.3530   5.8147  -0.4095   1.0195  -2.2456   0.00    0.0
2019/12/15 00:01:14.000   36.103636029  140.086311905    67.7066   5  15   2.6887   2.3531   5.8145  -0.4104   1.0202  -2.2458   0.00    0.0
2019/12/15 00:01:15.000   36.103637286  140.086317539    67.5867   5  15   2.6887   2.3531   5.8143  -0.4112   1.0210  -2.2460   0.00    0.0
2019/12/15 00:01:16.000   36.103638772  140.086314136    68.2360   5  15   2.6888   2.3531   5.8141  -0.4121   1.0217  -2.2462   0.00    0.0
2019/12/15 00:01:17.000   36.103637284  140.086317099    68.1611   5  15   2.6889   2.3532   5.8140  -0.4129   1.0224  -2.2464   0.00    0.0
2019/12/15 00:01:18.000   36.103633598  140.086318700    68.9762   5  15   2.6889   2.3532   5.8138  -0.4138   1.0231  -2.2466   0.00    0.0
2019/12/15 00:01:19.000   36.103638693  140.086321609    68.5104   5  15   2.6890   2.3532   5.8136  -0.4146   1.0238  -2.2468   0.00    0.0
2019/12/15 00:01:20.000   36.103632445  140.086321130    68.5382   5  15   2.6890   2.3533   5.8134  -0.4154   1.0246  -2.2471   0.00    0.0
2019/12/15 00:01:21.000   36.103634628  140.086319091    70.1579   5  15   2.6891   2.3533   5.8132  -0.4163   1.0253  -2.2473   0.00    0.0
2019/12/15 00:01:22.000   36.103640867  140.086327231    68.5609   5  15   2.6891   2.3533   5.8130  -0.4171   1.0260  -2.2475   0.00    0.0
2019/12/15 00:01:23.000   36.103635879  140.086322924    68.9361   5  15   2.6892   2.3534   5.8128  -0.4180   1.0267  -2.2477   0.00    0.0
2019/12/15 00:01:24.000   36.103630619  140.086320855    70.3238   5  15   2.6892   2.3534   5.8126  -0.4188   1.0274  -2.2479   0.00    0.0
2019/12/15 00:01:25.000   36.103632953  140.086323058    69.0241   5  15   2.6893   2.3534   5.8124  -0.4196   1.0281  -2.2481   0.00    0.0
2019/12/15 00:01:26.000   36.103632125  140.086318663    68.7632   5  15   2.6893   2.3535   5.8122  -0.4205   1.0289  -2.2483   0.00    0.0
2019/12/15 00:01:27.000   36.103637171  140.086317404    69.4028   5  15   2.6894   2.3535   5.8120  -0.4213   1.0296  -2.2485   0.00    0.0
2019/12/15 00:01:28.000   36.103634198  140.086318685    68.5097   5  15   2.6894   2.3535   5.8118  -0.4222   1.0303  -2.2487   0.00    0.0
2019/12/15 00:01:29.000   36.103631691  140.086312924    68.2131   5  15   2.6895   2.3536   5.8116  -0.4230   1.0310  -2.2490   0.00    0.0
2019/12/15 00:01:30.000   36.103630846  140.086317973    69.0853   5  15   2.6895   2.3536   5.8114  -0.4238   1.0317  -2.2492   0.00    0.0
2019/12/15 00:01:31.000   36.103631018  140.086319776    69.2718   5  15   2.6896   2.3536   5.8112  -0.4246   1.0324  -2.2494   0.00    0.0
2019/12/15 00:01:32.000   36.103638517  140.086319874    68.3520   5  15   2.6897   2.3537   5.8110  -0.4255   1.0331  -2.2496   0.00    0.0
2019/12/15 00:01:33.000   36.103636832  140.086313110    67.0324   5  15   2.6897   2.3537   5.8108  -0.4263   1.0338  -2.2498   0.00    0.0
2019/12/15 00:01:34.000   36.103629780  140.086309683    67.9889   5  15   2.6898   2.3537   5.8106  -0.4271   1.0345  -2.2500   0.00    0.0
2019/12/15 00:01:35.000   36.103631442  140.086308272    68.0853   5  15   2.6898   2.3538   5.8104  -0.4279   1.0353  -2.2502   0.00    0.0
2019/12/15 00:01:36.000   36.103636813  140.086312879    67.8168   5  15   2.6899   2.3538   5.8102  -0.4288   1.0360  -2.2504   0.00    0.0
2019/12/15 00:01:37.000   36.103633379  140.086320711    69.3614   5  15   2.6899   2.3538   5.8100  -0.4296   1.0367  -2.2506   0.00    0.0
2019/12/15 00:01:38.000   36.103634457  140.086314902    68.1021   5  15   2.6900   2.3539   5.8098  -0.4304   1.0374  -2.2508   0.00    0.0
2019/12/15 00:01:39.000   36.103636206  140.086322695    68.4418   5  15   2.6900   2.3539   5.8096  -0.4312   1.0381  -2.2511   0.00    0.0
2019/12/15 00:01:40.000   36.103638688  140.086317218    68.4374   5  15   2.6901   2.3539   5.8094  -0.4320   1.0388  -2.2513   0.00    0.0
2019/12/15 00:01:41.000   36.103633013  140.086312823    68.4565   5  15   2.6901   2.3540   5.8092  -0.4328   1.0395  -2.2515   0.00    0.0
2019/12/15 00:01:42.000   36.103633974  140.086316975    68.6328   5  15   2.6902   2.3540   5.8090  -0.4337   1.0402  -2.2517   0.00    0.0
2019/12/15 00:01:43.000   36.103633593  140.086316891    68.8921   5  15   2.6902   2.3540   5.8087  -0.4345   1.0409  -2.2519   0.00    0.0
2019/12/15 00:01:44.000   36.103634335  140.086306786    69.8159   5  15   2.6903   2.3541   5.8085  -0.4353   1.0416  -2.2521   0.00    0.0
2019/12/15 00:01:45.000   36.103635726  140.086313303    69.0453   5  15   2.6904   2.3541   5.8083  -0.4361   1.0423  -2.2523   0.00    0.0
2019/12/15 00:01:46.000   36.103640073  140.086310669    68.8203   5  15   2.6904   2.3541   5.8081  -0.4369   1.0430  -2.2525   0.00    0.0
2019/12/15 00:01:47.000   36.103633393  140.086309303    69.1136   5  15   2.6905   2.3542   5.8079  -0.4377   1.0437  -2.2527   0.00    0.0
2019/12/15 00:01:48.000   36.103634532  140.086310747    68.8793   5  15   2.6905   2.3542   5.8077  -0.4385   1.0444  -2.2529   0.00    0.0
2019/12/15 00:01:49.000   36.103635532  140.086313596    69.1548   5  15   2.6906   2.3542   5.8075  -0.4393   1.0451  -2.2531   0.00    0.0
2019/12/15 00:01:50.000   36.103634809  140.086316714    70.0885   5  15   2.6906   2.3543   5.8073  -0.4401   1.0458  -2.2534   0.00    0.0
2019/12/15 00:01:51.000   36.103639120  140.086314248    69.2746   5  15   2.6907   2.3543   5.8071  -0.4409   1.0465  -2.2536   0.00    0.0
2019/12/15 00:01:52.000   36.103638950  140.086315895    68.8045   5  15   2.6907   2.3543   5.8069  -0.4417   1.0472  -2.2538   0.00    0.0
2019/12/15 00:01:53.000   36.103636348  140.086312738    70.3586   5  15   2.6908   2.3544   5.8067  -0.4425   1.0479  -2.2540   0.00    0.0
2019/12/15 00:01:54.000   36.103634781  140.086315684    70.5997   5  15   2.6908   2.3544   5.8065  -0.4433   1.0486  -2.2542   0.00    0.0
2019/12/15 00:01:55.000   36.103637845  140.086312593    69.8075   5  15   2.6909   2.3545   5.8063  -0.4441   1.0493  -2.2544   0.00    0.0
2019/12/15 00:01:56.000   36.103636209  140.086314287    70.6756   5  15   2.6909   2.3545   5.8061  -0.4449   1.0500  -2.2546   0.00    0.0
2019/12/15 00:01:57.000   36.103631228  140.086311753    71.1807   5  15   2.6910   2.3545   5.8059  -0.4457   1.0507  -2.2548   0.00    0.0
2019/12/15 00:01:58.000   36.103637053  140.086311804    71.3481   5  15   2.6911   2.3546   5.8057  -0.4465   1.0514  -2.2550   0.00    0.0
2019/12/15 00:01:59.000   36.103637121  140.086317044    69.7872   5  15   2.6911   2.3546   5.8055  -0.4473   1.0521  -2.2552   0.00    0.0
2019/12/15 00:02:00.000   36.103634383  140.086314243    70.0538   5  15   2.6912   2.3546   5.8053  -0.4481   1.0528  -2.2554   0.00    0.0
2019/12/15 00:02:01.000   36.103635467  140.086315202    68.7716   5  15   2.6912   2.3547   5.8051  -0.4488   1.0535  -2.2556   0.00    0.0
2019/12/15 00:02:02.000   36.103635305  140.086314507    69.3729   5  15   2.6913   2.3547   5.8049  -0.4496   1.0542  -2.2558   0.00    0.0
2019/12/15 00:02:03.000   36.103635759  140.086311163    69.2582   5  15   2.6913   2.3547   5.8047  -0.4504   1.0549  -2.2561   0.00    0.0
2019/12/15 00:02:04.000   36.103633965  140.086318934    69.2332   5  15   2.6914   2.3548   5.8045  -0.4512   1.0556  -2.2563   0.00    0.0
2019/12/15 00:02:05.000   36.103641971  140.086313034    68.8571   5  15   2.6914   2.3548   5.8043  -0.4520   1.0563  -2.2565   0.00    0.0
2019/12/15 00:02:06.000   36.103637592  140.086317388    69.2718   5  15   2.6915   2.3548   5.8041  -0.4528   1.0570  -2.2567   0.00    0.0
2019/12/15 00:02:07.000   36.103643952  140.086317237    68.4564   5  15   2.6915   2.3549   5.8039  -0.4536   1.0577  -2.2569   0.00    0.0
2019/12/15 00:02:08.000   36.103636701  140.086315122    68.2913   5  15   2.6916   2.3549   5.8037  -0.4543   1.0584  -2.2571   0.00    0.0
2019/12/15 00:02:09.000   36.103639896  140.086311777    68.1331   5  15   2.6917   2.3549   5.8034  -0.4551   1.0590  -2.2573   0.00    0.0
2019/12/15 00:02:10.000   36.103635854  140.086315496    68.5283   5  15   2.6917   2.3550   5.8032  -0.4559   1.0597  -2.2575   0.00    0.0
2019/12/15 00:02:11.000   36.103635021  140.086312397    69.1339   5  15   2.6918   2.3550   5.8030  -0.4567   1.0604  -2.2577   0.00    0.0
2019/12/15 00:02:12.000   36.103635956  140.086318555    69.0572   5  15   2.6918   2.3550   5.8028  -0.4574   1.0611  -2.2579   0.00    0.0
2019/12/15 00:02:13.000   36.103632661  140.086321158    68.6549   5  15   2.6919   2.3551   5.8026  -0.4582   1.0618  -2.2581   0.00    0.0
2019/12/15 00:02:14.000   36.103638109  140.086314896    70.1291   5  15   2.6919   2.3551   5.8024  -0.4590   1.0625  -2.2583   0.00    0.0
2019/12/15 00:02:15.000   36.103634738  140.086317008    68.7001   5  15   2.6920   2.3552   5.8022  -0.4598   1.0632  -2.2585   0.00    0.0
2019/12/15 00:02:16.000   36.103635876  140.086313155    68.9615   5  15   2.6920   2.3552   5.8020  -0.4605   1.0639  -2.2587   0.00    0.0
2019/12/15 00:02:17.000   36.103637202  140.086311257    68.1208   5  15   2.6921   2.3552   5.8018  -0.4613   1.0645  -2.2589   0.00    0.0
2019/12/15 00:02:18.000   36.103635940  140.086314091    68.8186   5  15   2.6921   2.3553   5.8016  -0.4621   1.0652  -2.2591   0.00    0.0
2019/12/15 00:02:19.000   36.103632297  140.086312331    68.6845   5  15   2.6922   2.3553   5.8014  -0.4628   1.0659  -2.2593   0.00    0.0
2019/12/15 00:02:20.000   36.103632996  140.086309105    68.4182   5  15   2.6922   2.3553   5.8012  -0.4636   1.0666  -2.2596   0.00    0.0
2019/12/15 00:02:21.000   36.103635583  140.086311184    67.0731   5  15   2.6923   2.3554   5.8010  -0.4644   1.0673  -2.2598   0.00    0.0
2019/12/15 00:02:22.000   36.103632905  140.086312949    68.1874   5  15   2.6924   2.3554   5.8008  -0.4651   1.0680  -2.2600   0.00    0.0
2019/12/15 00:02:23.000   36.103642503  140.086314413    67.8417   5  15   2.6924   2.3554   5.8005  -0.4659   1.0686  -2.2602   0.00    0.0
2019/12/15 00:02:24.000   36.103637561  140.086312045    69.5951   5  15   2.6925   2.3555   5.8003  -0.4666   1.0693  -2.2604   0.00    0.0
2019/12/15 00:02:25.000   36.103635690  140.086315492    69.0246   5  15   2.6925   2.3555   5.8001  -0.4674   1.0700  -2.2606   0.00    0.0
2019/12/15 00:02:26.000   36.103641651  140.086312259    68.4633   5  15   2.6926   2.3555   5.7999  -0.4682   1.0707  -2.2608   0.00    0.0
2019/12/15 00:02:27.000   36.103641055  140.086316544    68.7251   5  15   2.6926   2.3556   5.7997  -0.4689   1.0714  -2.2610   0.00    0.0
2019/12/15 00:02:28.000   36.103635791  140.086313185    68.5714   5  15   2.6927   2.3556   5.7995  -0.4697   1.0721  -2.2612   0.00    0.0
2019/12/15 00:02:29.000   36.103642041  140.086319119    68.6394   5  15   2.6927   2.3557   5.7993  -0.4704   1.0727  -2.2614   0.00    0.0
2019/12/15 00:02:30.000   36.103641617  140.086313810    67.7594   5  15   2.6928   2.3557   5.7991  -0.4712   1.0734  -2.2616   0.00    0.0
2019/12/15 00:02:31.000   36.103642034  140.086313701    68.3027   5  15   2.6928   2.3557   5.7989  -0.4719   1.0741  -2.2618   0.00    0.0
2019/12/15 00:02:32.000   36.103647627  140.086314190    67.7989   5  15   2.6929   2.3558   5.7987  -0.4727   1.0748  -2.2620   0.00    0.0
2019/12/15 00:02:33.000   36.103644861  140.086319137    68.2206   5  15   2.6930   2.3558   5.7985  -0.4734   1.0754  -2.2622   0.00    0.0
2019/12/15 00:02:34.000   36.103642365  140.086315004    68.2190   5  15   2.6930   2.3558   5.7982  -0.4742   1.0761  -2.2624   0.00    0.0
2019/12/15 00:02:35.000   36.103640777  140.086316510    68.8149   5  15   2.6931   2.3559   5.7980  -0.4749   1.0768  -2.2626   0.00    0.0
2019/12/15 00:02:36.000   36.103641217  140.086315315    67.7848   5  15   2.6931   2.3559   5.7978  -0.4757   1.0775  -2.2628   0.00    0.0
2019/12/15 00:02:37.000   36.103641649  140.086305575    68.6078   5  15   2.6932   2.3559   5.7976  -0.4764   1.0782  -2.2630   0.00    0.0
2019/12/15 00:02:38.000   36.103644225  140.086314791    67.0687   5  15   2.6932   2.3560   5.7974  -0.4772   1.0788  -2.2632   0.00    0.0
2019/12/15 00:02:39.000   36.103640227  140.086308312    68.7951   5  15   2.6933   2.3560   5.7972  -0.4779   1.0795  -2.2634   0.00    0.0
2019/12/15 00:02:40.000   36.103645428  140.086310570    67.8720   5  15   2.6933   2.3561   5.7970  -0.4787   1.0802  -2.2636   0.00    0.0
2019/12/15 00:02:41.000   36.103636575  140.086313683    68.6129   5  15   2.6934   2.3561   5.7968  -0.4794   1.0808  -2.2638   0.00    0.0
2019/12/15 00:02:42.000   36.103640829  140.086305945    68.6228   5  15   2.6935   2.3561   5.7966  -0.4802   1.0815  -2.2640   0.00    0.0
2019/12/15 00:02:43.000   36.103637887  140.086307648    68.5909   5  15   2.6935   2.3562   5.7963  -0.4809   1.0822  -2.2642   0.00    0.0
2019/12/15 00:02:44.000   36.103644388  140.086313162    68.4117   5  15   2.6936   2.3562   5.7961  -0.4816   1.0829  -2.2644   0.00    0.0
2019/12/15 00:02:45.000   36.103645096  140.086311012    66.9811   5  15   2.6936   2.3562   5.7959  -0.4824   1.0835  -2.2646   0.00    0.0
2019/12/15 00:02:46.000   36.103643232  140.086311862    69.1556   5  15   2.6937   2.3563   5.7957  -0.4831   1.0842  -2.2648   0.00    0.0
2019/12/15 00:02:47.000   36.103640378  140.086316307    68.2484   5  15   2.6937   2.3563   5.7955  -0.4839   1.0849  -2.2651   0.00    0.0
2019/12/15 00:02:48.000   36.103642318  140.086318421    69.6548   5  15   2.6938   2.3564   5.7953  -0.4846   1.0855  -2.2653   0.00    0.0
2019/12/15 00:02:49.000   36.103646153  140.086314467    68.0635   5  15   2.6938   2.3564   5.7951  -0.4853   1.0862  -2.2655   0.00    0.0
2019/12/15 00:02:50.000   36.103648846  140.086314333    67.0258   5  15   2.6939   2.3564   5.7949  -0.4861   1.0869  -2.2657   0.00    0.0
2019/12/15 00:02:51.000   36.103642194  140.086316803    69.6495   5  15   2.6939   2.3565   5.7947  -0.4868   1.0876  -2.2659   0.00    0.0
2019/12/15 00:02:52.000   36.103643153  140.086321233    67.7536   5  15   2.6940   2.3565   5.7944  -0.4875   1.0882  -2.2661   0.00    0.0
2019/12/15 00:02:53.000   36.103646691  140.086309047    68.1407   5  15   2.6941   2.3565   5.7942  -0.4883   1.0889  -2.2663   0.00    0.0
2019/12/15 00:02:54.000   36.103643816  140.086316726    67.0959   5  15   2.6941   2.3566   5.7940  -0.4890   1.0896  -2.2665   0.00    0.0
2019/12/15 00:02:55.000   36.103633104  140.086317227    69.4653   5  15   2.6942   2.3566   5.7938  -0.4897   1.0902  -2.2667   0.00    0.0
2019/12/15 00:02:56.000   36.103645470  140.086314242    67.5712   5  15   2.6942   2.3567   5.7936  -0.4904   1.0909  -2.2669   0.00    0.0
2019/12/15 00:02:57.000   36.103640957  140.086312777    67.6303   5  15   2.6943   2.3567   5.7934  -0.4912   1.0916  -2.2671   0.00    0.0
2019/12/15 00:02:58.000   36.103649788  140.086315238    66.9752   5  15   2.6943   2.3567   5.7932  -0.4919   1.0922  -2.2673   0.00    0.0
2019/12/15 00:02:59.000   36.103642173  140.086323329    67.4474   5  15   2.6944   2.3568   5.7930  -0.4926   1.0929  -2.2675   0.00    0.0
2019/12/15 00:03:00.000   36.103639401  140.086317218    68.8702   5  15   2.6944   2.3568   5.7927  -0.4934   1.0935  -2.2677   0.00    0.0
2019/12/15 00:03:01.000   36.103636968  140.086310643    68.5219   5  15   2.6945   2.3568   5.7925  -0.4941   1.0942  -2.2679   0.00    0.0
2019/12/15 00:03:02.000   36.103639876  140.086315032    66.7608   5  15   2.6946   2.3569   5.7923  -0.4948   1.0949  -2.2681   0.00    0.0
2019/12/15 00:03:03.000   36.103638570  140.086314570    69.0281   5  15   2.6946   2.3569   5.7921  -0.4955   1.0955  -2.2683   0.00    0.0
2019/12/15 00:03:04.000   36.103638308  140.086313686    68.4883   5  15   2.6947   2.3570   5.7919  -0.4962   1.0962  -2.2685   0.00    0.0
2019/12/15 00:03:05.000   36.103645652  140.086322271    68.5437   5  15   2.6947   2.3570   5.7917  -0.4970   1.0969  -2.2687   0.00    0.0
2019/12/15 00:03:06.000   36.103650233  140.086319579    68.3882   5  15   2.6948   2.3570   5.7915  -0.4977   1.0975  -2.2689   0.00    0.0
2019/12/15 00:03:07.000   36.103642640  140.086320742    69.3172   5  15   2.6948   2.3571   5.7912  -0.4984   1.0982  -2.2691   0.00    0.0
2019/12/15 00:03:08.000   36.103645471  140.086317545    69.4597   5  15   2.6949   2.3571   5.7910  -0.4991   1.0988  -2.2693   0.00    0.0
2019/12/15 00:03:09.000   36.103641657  140.086313722    68.3064   5  15   2.6949   2.3572   5.7908  -0.4998   1.0995  -2.2695   0.00    0.0
2019/12/15 00:03:10.000   36.103633854  140.086322719    68.6941   5  15   2.6950   2.3572   5.7906  -0.5005   1.1001  -2.2697   0.00    0.0
2019/12/15 00:03:11.000   36.103639852  140.086312689    69.2039   5  15   2.6950   2.3572   5.7904  -0.5013   1.1008  -2.2699   0.00    0.0
2019/12/15 00:03:12.000   36.103639886  140.086316603    69.4539   5  15   2.6951   2.3573   5.7902  -0.5020   1.1015  -2.2701   0.00    0.0
2019/12/15 00:03:13.000   36.103643117  140.086316604    67.3764   5  15   2.6952   2.3573   5.7899  -0.5027   1.1021  -2.2703   0.00    0.0
2019/12/15 00:03:14.000   36.103645283  140.086317311    67.6677   5  15   2.6952   2.3573   5.7897  -0.5034   1.1028  -2.2705   0.00    0.0
2019/12/15 00:03:15.000   36.103649036  140.086320704    68.6447   5  15   2.6953   2.3574   5.7895  -0.5041   1.1034  -2.2707   0.00    0.0
2019/12/15 00:03:16.000   36.103642327  140.086311241    69.3230   5  15   2.6953   2.3574   5.7893  -0.5048   1.1041  -2.2709   0.00    0.0
2019/12/15 00:03:17.000   36.103644421  140.086313787    69.5847   5  15   2.6954   2.3575   5.7891  -0.5055   1.1047  -2.2711   0.00    0.0
2019/12/15 00:03:18.000   36.103640783  140.086317164    68.3649   5  15   2.6954   2.3575   5.7889  -0.5062   1.1054  -2.2713   0.00    0.0
2019/12/15 00:03:19.000   36.103642431  140.086320534    67.9655   5  15   2.6955   2.3575   5.7887  -0.5069   1.1061  -2.2715   0.00    0.0
2019/12/15 00:03:20.000   36.103650932  140.086321412    67.2008   5  15   2.6955   2.3576   5.7884  -0.5077   1.1067  -2.2717   0.00    0.0
2019/12/15 00:03:21.000   36.103638236  140.086317003    68.7820   5  15   2.6956   2.3576   5.7882  -0.5084   1.1074  -2.2719   0.00    0.0
2019/12/15 00:03:22.000   36.103648927  140.086317117    68.2196   5  15   2.6957   2.3577   5.7880  -0.5091   1.1080  -2.2721   0.00    0.0
2019/12/15 00:03:23.000   36.103644124  140.086315027    68.1423   5  15   2.6957   2.3577   5.7878  -0.5098   1.1087  -2.2723   0.00    0.0
2019/12/15 00:03:24.000   36.103635753  140.086318024    70.2036   5  15   2.6958   2.3577   5.7876  -0.5105   1.1093  -2.2725   0.00    0.0
2019/12/15 00:03:25.000   36.103641202  140.086319112    69.2405   5  15   2.6958   2.3578   5.7873  -0.5112   1.1100  -2.2727   0.00    0.0
2019/12/15 00:03:26.000   36.103643439  140.086319964    69.2530   5  15   2.6959   2.3578   5.7871  -0.5119   1.1106  -2.2729   0.00    0.0
2019/12/15 00:03:27.000   36.103647188  140.086321759    68.8052   5  15   2.6959   2.3579   5.7869  -0.5126   1.1113  -2.2731   0.00    0.0
2019/12/15 00:03:28.000   36.103644522  140.086313038    69.3409   5  15   2.6960   2.3579   5.7867  -0.5133   1.1119  -2.2733   0.00    0.0
2019/12/15 00:03:29.000   36.103638639  140.086316798    69.7871   5  15   2.6960   2.3579   5.7865  -0.5140   1.1126  -2.2734   0.00    0.0
2019/12/15 00:03:30.000   36.103644025  140.086317931    69.1699   5  15   2.6961   2.3580   5.7863  -0.5147   1.1132  -2.2736   0.00    0.0
2019/12/15 00:03:31.000   36.103642203  140.086312626    68.6319   5  15   2.6962   2.3580   5.7860  -0.5154   1.1139  -2.2738   0.00    0.0
2019/12/15 00:03:32.000   36.103641722  140.086318220    69.5635   5  15   2.6962   2.3581   5.7858  -0.5161   1.1145  -2.2740   0.00    0.0
2019/12/15 00:03:33.000   36.103645394  140.086318299    68.4187   5  15   2.6963   2.3581   5.7856  -0.5168   1.1152  -2.2742   0.00    0.0
2019/12/15 00:03:34.000   36.103639639  140.086318545    68.5549   5  15   2.6963   2.3581   5.7854  -0.5175   1.1158  -2.2744   0.00    0.0
2019/12/15 00:03:35.000   36.103638722  140.086309816    69.2528   5  15   2.6964   2.3582   5.7852  -0.5182   1.1165  -2.2746   0.00    0.0
2019/12/15 00:03:36.000   36.103639636  140.086315692    69.7290   5  15   2.6964   2.3582   5.7849  -0.5188   1.1171  -2.2748   0.00    0.0
2019/12/15 00:03:37.000   36.103641749  140.086319009    69.8360   5  15   2.6965   2.3583   5.7847  -0.5195   1.1177  -2.2750   0.00    0.0
2019/12/15 00:03:38.000   36.103641214  140.086315304    69.6593   5  15   2.6965   2.3583   5.7845  -0.5202   1.1184  -2.2752   0.00    0.0
2019/12/15 00:03:39.000   36.103640560  140.086313139    69.4663   5  15   2.6966   2.3583   5.7843  -0.5209   1.1190  -2.2754   0.00    0.0
2019/12/15 00:03:40.000   36.103642205  140.086315652    69.1599   5  15   2.6967   2.3584   5.7841  -0.5216   1.1197  -2.2756   0.00    0.0
2019/12/15 00:03:41.000   36.103644875  140.086314032    69.5439   5  15   2.6967   2.3584   5.7839  -0.5223   1.1203  -2.2758   0.00    0.0
2019/12/15 00:03:42.000   36.103642185  140.086315236    68.7586   5  15   2.6968   2.3585   5.7836  -0.5230   1.1210  -2.2760   0.00    0.0
2019/12/15 00:03:43.000   36.103642517  140.086315037    68.4618   5  15   2.6968   2.3585   5.7834  -0.5237   1.1216  -2.2762   0.00    0.0
2019/12/15 00:03:44.000   36.103643719  140.086315939    69.4437   5  15   2.6969   2.3585   5.7832  -0.5244   1.1222  -2.2764   0.00    0.0
2019/12/15 00:03:45.000   36.103639423  140.086318703    69.8057   5  15   2.6969   2.3586   5.7830  -0.5251   1.1229  -2.2766   0.00    0.0
2019/12/15 00:03:46.000   36.103645660  140.086313644    67.3183   5  15   2.6970   2.3586   5.7828  -0.5257   1.1235  -2.2768   0.00    0.0
2019/12/15 00:03:47.000   36.103640341  140.086315019    69.3255   5  15   2.6971   2.3587   5.7825  -0.5264   1.1242  -2.2770   0.00    0.0
2019/12/15 00:03:48.000   36.103644043  140.086311541    70.0039   5  15   2.6971   2.3587   5.7823  -0.5271   1.1248  -2.2772   0.00    0.0
2019/12/15 00:03:49.000   36.103641944  140.086313944    69.2362   5  15   2.6972   2.3587   5.7821  -0.5278   1.1255  -2.2774   0.00    0.0
2019/12/15 00:03:50.000   36.103644370  140.086315423    68.5712   5  15   2.6972   2.3588   5.7819  -0.5285   1.1261  -2.2776   0.00    0.0
2019/12/15 00:03:51.000   36.103641591  140.086318633    69.6378   5  15   2.6973   2.3588   5.7816  -0.5292   1.1267  -2.2778   0.00    0.0
2019/12/15 00:03:52.000   36.103644125  140.086308086    67.4013   5  15   2.6973   2.3589   5.7814  -0.5298   1.1274  -2.2780   0.00    0.0
2019/12/15 00:03:53.000   36.103643049  140.086315974    68.9978   5  15   2.6974   2.3589   5.7812  -0.5305   1.1280  -2.2782   0.00    0.0
2019/12/15 00:03:54.000   36.103646618  140.086307434    68.4409   5  15   2.6974   2.3589   5.7810  -0.5312   1.1286  -2.2784   0.00    0.0
2019/12/15 00:03:55.000   36.103641671  140.086311367    69.6341   5  15   2.6975   2.3590   5.7808  -0.5319   1.1293  -2.2786   0.00    0.0
2019/12/15 00:03:56.000   36.103640483  140.086311015    68.2934   5  15   2.6976   2.3590   5.7805  -0.5326   1.1299  -2.2787   0.00    0.0
2019/12/15 00:03:57.000   36.103641153  140.086309933    69.8502   5  15   2.6976   2.3591   5.7803  -0.5332   1.1306  -2.2789   0.00    0.0
2019/12/15 00:03:58.000   36.103644171  140.086308668    69.3365   5  15   2.6977   2.3591   5.7801  -0.5339   1.1312  -2.2791   0.00    0.0
2019/12/15 00:03:59.000   36.103639681  140.086305169    68.6543   5  15   2.6977   2.3591   5.7799  -0.5346   1.1318  -2.2793   0.00    0.0
2019/12/15 00:04:00.000   36.103642913  140.086299010    69.1637   5  15   2.6978   2.3592   5.7797  -0.5353   1.1325  -2.2795   0.00    0.0
2019/12/15 00:04:01.000   36.103648837  140.086302421    68.8380   5  15   2.6978   2.3592   5.7794  -0.5359   1.1331  -2.2797   0.00    0.0
2019/12/15 00:04:02.000   36.103644932  140.086309418    68.8440   5  15   2.6979   2.3593   5.7792  -0.5366   1.1337  -2.2799   0.00    0.0
2019/12/15 00:04:03.000   36.103642988  140.086304289    70.0239   5  15   2.6979   2.3593   5.7790  -0.5373   1.1344  -2.2801   0.00    0.0
2019/12/15 00:04:04.000   36.103642188  140.086303935    70.2578   5  15   2.6980   2.3594   5.7788  -0.5379   1.1350  -2.2803   0.00    0.0
2019/12/15 00:04:05.000   36.103647146  140.086308018    69.5095   5  15   2.6981   2.3594   5.7785  -0.5386   1.1356  -2.2805   0.00    0.0
2019/12/15 00:04:06.000   36.103642747  140.086313115    70.0286   5  15   2.6981   2.3594   5.7783  -0.5393   1.1363  -2.2807   0.00    0.0
2019/12/15 00:04:07.000   36.103644241  140.086304552    70.4896   5  15   2.6982   2.3595   5.7781  -0.5400   1.1369  -2.2809   0.00    0.0
2019/12/15 00:04:08.000   36.103646176  140.086312624    69.3405   5  15   2.6982   2.3595   5.7779  -0.5406   1.1375  -2.2811   0.00    0.0
2019/12/15 00:04:09.000   36.103645324  140.086309000    69.7442   5  15   2.6983   2.3596   5.7776  -0.5413   1.1381  -2.2813   0.00    0.0
2019/12/15 00:04:10.000   36.103642581  140.086311276    69.4042   5  15   2.6983   2.3596   5.7774  -0.5420   1.1388  -2.2815   0.00    0.0
2019/12/15 00:04:11.000   36.103639428  140.086314796    70.4785   5  15   2.6984   2.3596   5.7772  -0.5426   1.1394  -2.2817   0.00    0.0
2019/12/15 00:04:12.000   36.103644410  140.086318551    69.3714   5  15   2.6985   2.3597   5.7770  -0.5433   1.1400  -2.2819   0.00    0.0
2019/12/15 00:04:13.000   36.103638611  140.086312960    70.4918   5  15   2.6985   2.3597   5.7768  -0.5440   1.1407  -2.2820   0.00    0.0
2019/12/15 00:04:14.000   36.103641324  140.086313612    69.1381   5  15   2.6986   2.3598   5.7765  -0.5446   1.1413  -2.2822   0.00    0.0
2019/12/15 00:04:15.000   36.103643794  140.086311393    69.1869   5  15   2.6986   2.3598   5.7763  -0.5453   1.1419  -2.2824   0.00    0.0
2019/12/15 00:04:16.000   36.103648117  140.086307662    69.7964   5  15   2.6987   2.3599   5.7761  -0.5460   1.1425  -2.2826   0.00    0.0
2019/12/15 00:04:17.000   36.103645221  140.086310604    69.0755   5  15   2.6987   2.3599   5.7759  -0.5466   1.1432  -2.2828   0.00    0.0
2019/12/15 00:04:18.000   36.103638731  140.086309913    69.1368   5  15   2.6988   2.3599   5.7756  -0.5473   1.1438  -2.2830   0.00    0.0
2019/12/15 00:04:19.000   36.103642618  140.086308183    69.3960   5  15   2.6989   2.3600   5.7754  -0.5479   1.1444  -2.2832   0.00    0.0
2019/12/15 00:04:20.000   36.103645671  140.086317377    70.1351   5  15   2.6989   2.3600   5.7752  -0.5486   1.1450  -2.2834   0.00    0.0
2019/12/15 00:04:21.000   36.103642192  140.086311547    70.0701   5  15   2.6990   2.3601   5.7750  -0.5493   1.1457  -2.2836   0.00    0.0
2019/12/15 00:04:22.000   36.103646982  140.086316335    69.5130   5  15   2.6990   2.3601   5.7747  -0.5499   1.1463  -2.2838   0.00    0.0
2019/12/15 00:04:23.000   36.103638397  140.086313273    69.7492   5  15   2.6991   2.3602   5.7745  -0.5506   1.1469  -2.2840   0.00    0.0
2019/12/15 00:04:24.000   36.103644851  140.086311470    68.9260   5  15   2.6991   2.3602   5.7743  -0.5512   1.1475  -2.2842   0.00    0.0
2019/12/15 00:04:25.000   36.103636159  140.086311681    69.7884   5  15   2.6992   2.3602   5.7741  -0.5519   1.1482  -2.2844   0.00    0.0
2019/12/15 00:04:26.000   36.103641972  140.086316847    69.9820   5  15   2.6992   2.3603   5.7738  -0.5526   1.1488  -2.2845   0.00    0.0
2019/12/15 00:04:27.000   36.103644166  140.086315717    69.6361   5  15   2.6993   2.3603   5.7736  -0.5532   1.1494  -2.2847   0.00    0.0
2019/12/15 00:04:28.000   36.103643749  140.086319079    69.8451   5  15   2.6994   2.3604   5.7734  -0.5539   1.1500  -2.2849   0.00    0.0
2019/12/15 00:04:29.000   36.103643762  140.086313513    69.5549   5  15   2.6994   2.3604   5.7731  -0.5545   1.1507  -2.2851   0.00    0.0
2019/12/15 00:04:30.000   36.103643812  140.086315894    70.3376   5  15   2.6995   2.3605   5.7729  -0.5552   1.1513  -2.2853   0.00    0.0
2019/12/15 00:04:31.000   36.103643929  140.086316808    68.6435   5  15   2.6995   2.3605   5.7727  -0.5558   1.1519  -2.2855   0.00    0.0
2019/12/15 00:04:32.000   36.103641233  140.086316731    68.9281   5  15   2.6996   2.3605   5.7725  -0.5565   1.1525  -2.2857   0.00    0.0
2019/12/15 00:04:33.000   36.103642901  140.086315140    70.7182   5  15   2.6996   2.3606   5.7722  -0.5571   1.1531  -2.2859   0.00    0.0
2019/12/15 00:04:34.000   36.103638617  140.086318633    69.7619   5  15   2.6997   2.3606   5.7720  -0.5578   1.1538  -2.2861   0.00    0.0
2019/12/15 00:04:35.000   36.103641589  140.086310824    69.5951   5  15   2.6998   2.3607   5.7718  -0.5584   1.1544  -2.2863   0.00    0.0
2019/12/15 00:04:36.000   36.103641237  140.086317553    70.4702   5  15   2.6998   2.3607   5.7716  -0.5591   1.1550  -2.2865   0.00    0.0
2019/12/15 00:04:37.000   36.103638019  140.086317411    70.7110   5  15   2.6999   2.3608   5.7713  -0.5597   1.1556  -2.2866   0.00    0.0
2019/12/15 00:04:38.000   36.103647907  140.086313130    68.4530   5  15   2.6999   2.3608   5.7711  -0.5604   1.1562  -2.2868   0.00    0.0
2019/12/15 00:04:39.000   36.103641287  140.086313574    69.2020   5  15   2.7000   2.3608   5.7709  -0.5610   1.1568  -2.2870   0.00    0.0
2019/12/15 00:04:40.000   36.103638513  140.086313452    70.3259   5  15   2.7000   2.3609   5.7707  -0.5617   1.1575  -2.2872   0.00    0.0
2019/12/15 00:04:41.000   36.103642176  140.086319379    70.2066   5  15   2.7001   2.3609   5.7704  -0.5623   1.1581  -2.2874   0.00    0.0
2019/12/15 00:04:42.000   36.103640956  140.086311620    69.1534   5  15   2.7002   2.3610   5.7702  -0.5630   1.1587  -2.2876   0.00    0.0
2019/12/15 00:04:43.000   36.103640847  140.086311123    68.7929   5  15   2.7002   2.3610   5.7700  -0.5636   1.1593  -2.2878   0.00    0.0
2019/12/15 00:04:44.000   36.103642381  140.086315547    69.2573   5  15   2.7003   2.3611   5.7697  -0.5643   1.1599  -2.2880   0.00    0.0
2019/12/15 00:04:45.000   36.103636463  140.086309377    68.8477   5  15   2.7003   2.3611   5.7695  -0.5649   1.1605  -2.2882   0.00    0.0
2019/12/15 00:04:46.000   36.103638343  140.086316659    69.2875   5  15   2.7004   2.3611   5.7693  -0.5656   1.1611  -2.2884   0.00    0.0
2019/12/15 00:04:47.000   36.103638588  140.086308705    68.8494   5  15   2.7004   2.3612   5.7691  -0.5662   1.1618  -2.2885   0.00    0.0
2019/12/15 00:04:48.000   36.103638829  140.086310627    68.4615   5  15   2.7005   2.3612   5.7688  -0.5668   1.1624  -2.2887   0.00    0.0
2019/12/15 00:04:49.000   36.103640018  140.086310943    69.2314   5  15   2.7006   2.3613   5.7686  -0.5675   1.1630  -2.2889   0.00    0.0
2019/12/15 00:04:50.000   36.103640951  140.086312730    68.7558   5  15   2.7006   2.3613   5.7684  -0.5681   1.1636  -2.2891   0.00    0.0
2019/12/15 00:04:51.000   36.103634357  140.086313029    69.7181   5  15   2.7007   2.3614   5.7681  -0.5688   1.1642  -2.2893   0.00    0.0
2019/12/15 00:04:52.000   36.103637389  140.086315405    69.5483   5  15   2.7007   2.3614   5.7679  -0.5694   1.1648  -2.2895   0.00    0.0
2019/12/15 00:04:53.000   36.103641478  140.086313336    68.9058   5  15   2.7008   2.3615   5.7677  -0.5700   1.1654  -2.2897   0.00    0.0
2019/12/15 00:04:54.000   36.103638829  140.086317960    68.8018   5  15   2.7008   2.3615   5.7675  -0.5707   1.1660  -2.2899   0.00    0.0
2019/12/15 00:04:55.000   36.103637347  140.086309429    68.3828   5  15   2.7009   2.3615   5.7672  -0.5713   1.1666  -2.2901   0.00    0.0
2019/12/15 00:04:56.000   36.103640667  140.086312490    68.4157   5  15   2.7010   2.3616   5.7670  -0.5720   1.1673  -2.2902   0.00    0.0
2019/12/15 00:04:57.000   36.103641185  140.086311397    67.3533   5  15   2.7010   2.3616   5.7668  -0.5726   1.1679  -2.2904   0.00    0.0
2019/12/15 00:04:58.000   36.103640133  140.086314521    67.7078   5  15   2.7011   2.3617   5.7665  -0.5732   1.1685  -2.2906   0.00    0.0
2019/12/15 00:04:59.000   36.103642680  140.086315212    68.5489   5  15   2.7011   2.3617   5.7663  -0.5739   1.1691  -2.2908   0.00    0.0
2019/12/15 00:05:00.000   36.103635734  140.086311473    68.8770   5  15   2.7012   2.3618   5.7661  -0.5745   1.1697  -2.2910   0.00    0.0
2019/12/15 00:05:01.000   36.103636444  140.086318978    70.4787   5  15   2.7012   2.3618   5.7658  -0.5751   1.1703  -2.2912   0.00    0.0
2019/12/15 00:05:02.000   36.103638108  140.086312253    70.1892   5  15   2.7013   2.3618   5.7656  -0.5758   1.1709  -2.2914   0.00    0.0
2019/12/15 00:05:03.000   36.103640051  140.086308568    69.2739   5  15   2.7014   2.3619   5.7654  -0.5764   1.1715  -2.2916   0.00    0.0
2019/12/15 00:05:04.000   36.103631342  140.086314030    69.5838   5  15   2.7014   2.3619   5.7651  -0.5770   1.1721  -2.2917   0.00    0.0
2019/12/15 00:05:05.000   36.103636902  140.086314192    69.2183   5  15   2.7015   2.3620   5.7649  -0.5777   1.1727  -2.2919   0.00    0.0
2019/12/15 00:05:06.000   36.103637293  140.086316155    69.6953   5  15   2.7015   2.3620   5.7647  -0.5783   1.1733  -2.2921   0.00    0.0
2019/12/15 00:05:07.000   36.103635534  140.086312111    70.7050   5  15   2.7016   2.3621   5.7645  -0.5789   1.1739  -2.2923   0.00    0.0
2019/12/15 00:05:08.000   36.103637868  140.086306614    68.7675   5  15   2.7016   2.3621   5.7642  -0.5796   1.1745  -2.2925   0.00    0.0
2019/12/15 00:05:09.000   36.103634551  140.086309622    69.8466   5  15   2.7017   2.3622   5.7640  -0.5802   1.1751  -2.2927   0.00    0.0
2019/12/15 00:05:10.000   36.103639020  140.086312309    68.3614   5  15   2.7018   2.3622   5.7638  -0.5808   1.1757  -2.2929   0.00    0.0
2019/12/15 00:05:11.000   36.103634333  140.086311715    68.8271   5  15   2.7018   2.3623   5.7635  -0.5815   1.1763  -2.2931   0.00    0.0
2019/12/15 00:05:12.000   36.103641687  140.086308059    67.4700   5  15   2.7019   2.3623   5.7633  -0.5821   1.1769  -2.2932   0.00    0.0
2019/12/15 00:05:13.000   36.103647409  140.086311002    67.8812   5  15   2.7019   2.3623   5.7631  -0.5827   1.1775  -2.2934   0.00    0.0
2019/12/15 00:05:14.000   36.103646286  140.086311231    68.7663   5  15   2.7020   2.3624   5.7628  -0.5833   1.1781  -2.2936   0.00    0.0
2019/12/15 00:05:15.000   36.103642217  140.086307552    68.6303   5  15   2.7020   2.3624   5.7626  -0.5840   1.1788  -2.2938   0.00    0.0
2019/12/15 00:05:16.000   36.103638683  140.086314246    68.8606   5  15   2.7021   2.3625   5.7624  -0.5846   1.1794  -2.2940   0.00    0.0
2019/12/15 00:05:17.000   36.103637310  140.086308865    69.7977   5  15   2.7022   2.3625   5.7621  -0.5852   1.1800  -2.2942   0.00    0.0
2019/12/15 00:05:18.000   36.103642992  140.086313011    68.9512   5  15   2.7022   2.3626   5.7619  -0.5858   1.1806  -2.2944   0.00    0.0
2019/12/15 00:05:19.000   36.103639640  140.086309979    68.3668   5  15   2.7023   2.3626   5.7617  -0.5865   1.1812  -2.2945   0.00    0.0
2019/12/15 00:05:20.000   36.103641403  140.086310217    69.1922   5  15   2.7023   2.3627   5.7614  -0.5871   1.1818  -2.2947   0.00    0.0
2019/12/15 00:05:21.000   36.103636456  140.086314239    69.2261   5  15   2.7024   2.3627   5.7612  -0.5877   1.1823  -2.2949   0.00    0.0
2019/12/15 00:05:22.000   36.103639582  140.086311812    69.3021   5  15   2.7024   2.3628   5.7610  -0.5883   1.1829  -2.2951   0.00    0.0
2019/12/15 00:05:23.000   36.103644522  140.086311616    69.0646   5  15   2.7025   2.3628   5.7607  -0.5890   1.1835  -2.2953   0.00    0.0
2019/12/15 00:05:24.000   36.103635373  140.086309723    69.2895   5  15   2.7026   2.3628   5.7605  -0.5896   1.1841  -2.2955   0.00    0.0
2019/12/15 00:05:25.000   36.103636001  140.086306847    69.7109   5  15   2.7026   2.3629   5.7603  -0.5902   1.1847  -2.2957   0.00    0.0
2019/12/15 00:05:26.000   36.103632110  140.086309657    69.7950   5  15   2.7027   2.3629   5.7600  -0.5908   1.1853  -2.2958   0.00    0.0
2019/12/15 00:05:27.000   36.103634334  140.086314715    69.8509   5  15   2.7027   2.3630   5.7598  -0.5914   1.1859  -2.2960   0.00    0.0
2019/12/15 00:05:28.000   36.103640594  140.086313517    69.7785   5  15   2.7028   2.3630   5.7596  -0.5921   1.1865  -2.2962   0.00    0.0
2019/12/15 00:05:29.000   36.103639667  140.086319339    69.6955   5  15   2.7028   2.3631   5.7593  -0.5927   1.1871  -2.2964   0.00    0.0
2019/12/15 00:05:30.000   36.103642650  140.086316732    70.2883   5  15   2.7029   2.3631   5.7591  -0.5933   1.1877  -2.2966   0.00    0.0
2019/12/15 00:05:31.000   36.103640011  140.086320127    68.9628   5  15   2.7030   2.3632   5.7589  -0.5939   1.1883  -2.2968   0.00    0.0
2019/12/15 00:05:32.000   36.103639797  140.086326336    69.6114   5  15   2.7030   2.3632   5.7586  -0.5945   1.1889  -2.2970   0.00    0.0
2019/12/15 00:05:33.000   36.103635226  140.086321287    69.6582   5  15   2.7031   2.3633   5.7584  -0.5952   1.1895  -2.2971   0.00    0.0
2019/12/15 00:05:34.000   36.103632830  140.086320506    69.6558   5  15   2.7031   2.3633   5.7582  -0.5958   1.1901  -2.2973   0.00    0.0
2019/12/15 00:05:35.000   36.103638778  140.086327731    70.6478   5  15   2.7032   2.3633   5.7579  -0.5964   1.1907  -2.2975   0.00    0.0
2019/12/15 00:05:36.000   36.103635195  140.086320589    70.3566   5  15   2.7033   2.3634   5.7577  -0.5970   1.1913  -2.2977   0.00    0.0
2019/12/15 00:05:37.000   36.103637056  140.086317522    69.3717   5  15   2.7033   2.3634   5.7575  -0.5976   1.1919  -2.2979   0.00    0.0
2019/12/15 00:05:38.000   36.103638548  140.086321383    69.9532   5  15   2.7034   2.3635   5.7572  -0.5982   1.1925  -2.2981   0.00    0.0
2019/12/15 00:05:39.000   36.103641413  140.086312739    67.9900   5  15   2.7034   2.3635   5.7570  -0.5988   1.1931  -2.2982   0.00    0.0
2019/12/15 00:05:40.000   36.103638577  140.086314768    68.7271   5  15   2.7035   2.3636   5.7568  -0.5995   1.1936  -2.2984   0.00    0.0
2019/12/15 00:05:41.000   36.103640784  140.086315886    68.8329   5  15   2.7035   2.3636   5.7565  -0.6001   1.1942  -2.2986   0.00    0.0
2019/12/15 00:05:42.000   36.103638781  140.086312501    69.0940   5  15   2.7036   2.3637   5.7563  -0.6007   1.1948  -2.2988   0.00    0.0
2019/12/15 00:05:43.000   36.103637989  140.086312439    68.3790   5  15   2.7037   2.3637   5.7560  -0.6013   1.1954  -2.2990   0.00    0.0
2019/12/15 00:05:44.000   36.103638795  140.086312081    69.7249   5  15   2.7037   2.3638   5.7558  -0.6019   1.1960  -2.2992   0.00    0.0
2019/12/15 00:05:45.000   36.103640207  140.086312729    69.0996   5  15   2.7038   2.3638   5.7556  -0.6025   1.1966  -2.2993   0.00    0.0
2019/12/15 00:05:46.000   36.103638193  140.086314139    69.3982   5  15   2.7038   2.3639   5.7553  -0.6031   1.1972  -2.2995   0.00    0.0
2019/12/15 00:05:47.000   36.103640356  140.086315784    69.4034   5  15   2.7039   2.3639   5.7551  -0.6037   1.1978  -2.2997   0.00    0.0
2019/12/15 00:05:48.000   36.103638225  140.086319631    69.0665   5  15   2.7039   2.3640   5.7549  -0.6043   1.1983  -2.2999   0.00    0.0
2019/12/15 00:05:49.000   36.103636316  140.086310420    68.8132   5  15   2.7040   2.3640   5.7546  -0.6050   1.1989  -2.3001   0.00    0.0
2019/12/15 00:05:50.000   36.103638133  140.086318610    68.4009   5  15   2.7041   2.3640   5.7544  -0.6056   1.1995  -2.3003   0.00    0.0
2019/12/15 00:05:51.000   36.103639376  140.086314124    69.0540   5  15   2.7041   2.3641   5.7542  -0.6062   1.2001  -2.3004   0.00    0.0
2019/12/15 00:05:52.000   36.103638643  140.086319105    68.9034   5  15   2.7042   2.3641   5.7539  -0.6068   1.2007  -2.3006   0.00    0.0
2019/12/15 00:05:53.000   36.103643151  140.086317633    68.5116   5  15   2.7042   2.3642   5.7537  -0.6074   1.2013  -2.3008   0.00    0.0
2019/12/15 00:05:54.000   36.103640463  140.086316102    69.0020   5  15   2.7043   2.3642   5.7534  -0.6080   1.2019  -2.3010   0.00    0.0
2019/12/15 00:05:55.000   36.103638683  140.086311413    68.0507   5  15   2.7044   2.3643   5.7532  -0.6086   1.2025  -2.3012   0.00    0.0
2019/12/15 00:05:56.000   36.103639266  140.086309224    68.9343   5  15   2.7044   2.3643   5.7530  -0.6092   1.2030  -2.3013   0.00    0.0
2019/12/15 00:05:57.000   36.103640026  140.086316018    67.8745   5  15   2.7045   2.3644   5.7527  -0.6098   1.2036  -2.3015   0.00    0.0
2019/12/15 00:05:58.000   36.103644601  140.086308272    68.1808   5  15   2.7045   2.3644   5.7525  -0.6104   1.2042  -2.3017   0.00    0.0
2019/12/15 00:05:59.000   36.103643878  140.086309089    68.3014   5  15   2.7046   2.3645   5.7523  -0.6110   1.2048  -2.3019   0.00    0.0
2019/12/15 00:06:00.000   36.103644081  140.086309515    68.5404   5  15   2.7046   2.3645   5.7520  -0.6116   1.2054  -2.3021   0.00    0.0
2019/12/15 00:06:01.000   36.103645120  140.086308168    67.2991   5  15   2.7047   2.3646   5.7518  -0.6122   1.2059  -2.3023   0.00    0.0
2019/12/15 00:06:02.000   36.103645507  140.086306629    67.1763   5  15   2.7048   2.3646   5.7515  -0.6128   1.2065  -2.3024   0.00    0.0
2019/12/15 00:06:03.000   36.103647490  140.086309261    66.7268   5  15   2.7048   2.3647   5.7513  -0.6134   1.2071  -2.3026   0.00    0.0
2019/12/15 00:06:04.000   36.103643683  140.086309541    67.5499   5  15   2.7049   2.3647   5.7511  -0.6140   1.2077  -2.3028   0.00    0.0
2019/12/15 00:06:05.000   36.103642698  140.086309691    67.1280   5  15   2.7049   2.3648   5.7508  -0.6146   1.2083  -2.3030   0.00    0.0
2019/12/15 00:06:06.000   36.103643984  140.086310692    67.6935   5  15   2.7050   2.3648   5.7506  -0.6152   1.2089  -2.3032   0.00    0.0
2019/12/15 00:06:07.000   36.103647206  140.086316145    67.1178   5  15   2.7051   2.3649   5.7503  -0.6158   1.2094  -2.3033   0.00    0.0
2019/12/15 00:06:08.000   36.103645513  140.086317859    66.9866   5  15   2.7051   2.3649   5.7501  -0.6164   1.2100  -2.3035   0.00    0.0
2019/12/15 00:06:09.000   36.103645750  140.086310767    67.2903   5  15   2.7052   2.3650   5.7499  -0.6170   1.2106  -2.3037   0.00    0.0
2019/12/15 00:06:10.000   36.103645430  140.086313474    66.9751   5  15   2.7052   2.3650   5.7496  -0.6176   1.2112  -2.3039   0.00    0.0
2019/12/15 00:06:11.000   36.103649337  140.086323801    68.2063   5  15   2.7053   2.3650   5.7494  -0.6182   1.2117  -2.3041   0.00    0.0
2019/12/15 00:06:12.000   36.103646017  140.086316363    66.5714   5  15   2.7053   2.3651   5.7492  -0.6188   1.2123  -2.3042   0.00    0.0
2019/12/15 00:06:13.000   36.103640280  140.086318024    67.0686   5  15   2.7054   2.3651   5.7489  -0.6194   1.2129  -2.3044   0.00    0.0
2019/12/15 00:06:14.000   36.103637636  140.086315840    68.2981   5  15   2.7055   2.3652   5.7487  -0.6200   1.2135  -2.3046   0.00    0.0
2019/12/15 00:06:15.000   36.103640151  140.086325133    68.2737   5  15   2.7055   2.3652   5.7484  -0.6206   1.2141  -2.3048   0.00    0.0
2019/12/15 00:06:16.000   36.103639588  140.086309862    67.1405   5  15   2.7056   2.3653   5.7482  -0.6212   1.2146  -2.3050   0.00    0.0
2019/12/15 00:06:17.000   36.103634306  140.086313413    68.4118   5  15   2.7056   2.3653   5.7480  -0.6218   1.2152  -2.3051   0.00    0.0
2019/12/15 00:06:18.000   36.103641005  140.086315027    68.2533   5  15   2.7057   2.3654   5.7477  -0.6224   1.2158  -2.3053   0.00    0.0
2019/12/15 00:06:19.000   36.103639986  140.086323517    68.4796   5  15   2.7058   2.3654   5.7475  -0.6230   1.2164  -2.3055   0.00    0.0
2019/12/15 00:06:20.000   36.103639265  140.086316438    68.4344   5  15   2.7058   2.3655   5.7472  -0.6236   1.2169  -2.3057   0.00    0.0
2019/12/15 00:06:21.000   36.103640848  140.086316970    68.6410   5  15   2.7059   2.3655   5.7470  -0.6242   1.2175  -2.3059   0.00    0.0
2019/12/15 00:06:22.000   36.103640290  140.086321331    68.0565   5  15   2.7059   2.3656   5.7468  -0.6248   1.2181  -2.3060   0.00    0.0
2019/12/15 00:06:23.000   36.103639664  140.086316547    68.0248   5  15   2.7060   2.3656   5.7465  -0.6253   1.2187  -2.3062   0.00    0.0
2019/12/15 00:06:24.000   36.103638188  140.086312045    67.8981   5  15   2.7060   2.3657   5.7463  -0.6259   1.2192  -2.3064   0.00    0.0
2019/12/15 00:06:25.000   36.103645528  140.086315297    68.5673   5  15   2.7061   2.3657   5.7460  -0.6265   1.2198  -2.3066   0.00    0.0
2019/12/15 00:06:26.000   36.103637874  140.086316900    69.4724   5  15   2.7062   2.3658   5.7458  -0.6271   1.2204  -2.3067   0.00    0.0
2019/12/15 00:06:27.000   36.103640140  140.086314702    66.9723   5  15   2.7062   2.3658   5.7455  -0.6277   1.2209  -2.3069   0.00    0.0
2019/12/15 00:06:28.000   36.103644887  140.086313015    67.7283   5  15   2.7063   2.3659   5.7453  -0.6283   1.2215  -2.3071   0.00    0.0
2019/12/15 00:06:29.000   36.103641254  140.086318123    68.4061   5  15   2.7063   2.3659   5.7451  -0.6289   1.2221  -2.3073   0.00    0.0
2019/12/15 00:06:30.000   36.103643284  140.086315118    67.9425   5  15   2.7064   2.3660   5.7448  -0.6295   1.2227  -2.3075   0.00    0.0
2019/12/15 00:06:31.000   36.103640597  140.086319489    67.7752   5  15   2.7065   2.3660   5.7446  -0.6301   1.2232  -2.3076   0.00    0.0
2019/12/15 00:06:32.000   36.103634132  140.086317729    68.5329   5  15   2.7065   2.3661   5.7443  -0.6306   1.2238  -2.3078   0.00    0.0
2019/12/15 00:06:33.000   36.103636563  140.086313093    67.9063   5  15   2.7066   2.3661   5.7441  -0.6312   1.2244  -2.3080   0.00    0.0
2019/12/15 00:06:34.000   36.103641485  140.086314300    66.9941   5  15   2.7066   2.3662   5.7439  -0.6318   1.2249  -2.3082   0.00    0.0
2019/12/15 00:06:35.000   36.103638297  140.086313590    68.0619   5  15   2.7067   2.3662   5.7436  -0.6324   1.2255  -2.3083   0.00    0.0
2019/12/15 00:06:36.000   36.103629410  140.086313167    69.4482   5  15   2.7068   2.3663   5.7434  -0.6330   1.2261  -2.3085   0.00    0.0
2019/12/15 00:06:37.000   36.103632842  140.086310080    68.7344   5  15   2.7068   2.3663   5.7431  -0.6336   1.2266  -2.3087   0.00    0.0
2019/12/15 00:06:38.000   36.103635897  140.086311617    68.6522   5  15   2.7069   2.3664   5.7429  -0.6342   1.2272  -2.3089   0.00    0.0
2019/12/15 00:06:39.000   36.103633578  140.086312661    68.6057   5  15   2.7069   2.3664   5.7426  -0.6347   1.2278  -2.3091   0.00    0.0
2019/12/15 00:06:40.000   36.103636420  140.086312591    67.7580   5  15   2.7070   2.3665   5.7424  -0.6353   1.2283  -2.3092   0.00    0.0
2019/12/15 00:06:41.000   36.103638268  140.086311022    68.5604   5  15   2.7070   2.3665   5.7422  -0.6359   1.2289  -2.3094   0.00    0.0
2019/12/15 00:06:42.000   36.103636208  140.086313069    69.4018   5  15   2.7071   2.3666   5.7419  -0.6365   1.2295  -2.3096   0.00    0.0
2019/12/15 00:06:43.000   36.103640006  140.086310792    69.1948   5  15   2.7072   2.3666   5.7417  -0.6371   1.2300  -2.3098   0.00    0.0
2019/12/15 00:06:44.000   36.103637348  140.086311425    68.8332   5  15   2.7072   2.3667   5.7414  -0.6377   1.2306  -2.3099   0.00    0.0
2019/12/15 00:06:45.000   36.103642404  140.086315178    68.2476   5  15   2.7073   2.3667   5.7412  -0.6382   1.2312  -2.3101   0.00    0.0
2019/12/15 00:06:46.000   36.103641987  140.086309657    68.9538   5  15   2.7073   2.3668   5.7409  -0.6388   1.2317  -2.3103   0.00    0.0
2019/12/15 00:06:47.000   36.103641663  140.086316304    68.5328   5  15   2.7074   2.3668   5.7407  -0.6394   1.2323  -2.3105   0.00    0.0
2019/12/15 00:06:48.000   36.103649102  140.086315765    68.5509   5  15   2.7075   2.3669   5.7405  -0.6400   1.2329  -2.3106   0.00    0.0
2019/12/15 00:06:49.000   36.103642407  140.086312839    68.8498   5  15   2.7075   2.3669   5.7402  -0.6406   1.2334  -2.3108   0.00    0.0
2019/12/15 00:06:50.000   36.103642790  140.086314853    68.5194   5  15   2.7076   2.3670   5.7400  -0.6412   1.2340  -2.3110   0.00    0.0
2019/12/15 00:06:51.000   36.103650272  140.086310463    67.4264   5  15   2.7076   2.3670   5.7397  -0.6417   1.2345  -2.3112   0.00    0.0
2019/12/15 00:06:52.000   36.103647099  140.086311442    67.3306   5  15   2.7077   2.3671   5.7395  -0.6423   1.2351  -2.3113   0.00    0.0
2019/12/15 00:06:53.000   36.103645579  140.086312303    67.5100   5  15   2.7078   2.3671   5.7392  -0.6429   1.2357  -2.3115   0.00    0.0
2019/12/15 00:06:54.000   36.103646151  140.086319505    68.0394   5  15   2.7078   2.3672   5.7390  -0.6435   1.2362  -2.3117   0.00    0.0
2019/12/15 00:06:55.000   36.103642385  140.086317399    68.2355   5  15   2.7079   2.3672   5.7387  -0.6440   1.2368  -2.3119   0.00    0.0
2019/12/15 00:06:56.000   36.103641882  140.086313860    67.7180   5  15   2.7079   2.3673   5.7385  -0.6446   1.2374  -2.3120   0.00    0.0
2019/12/15 00:06:57.000   36.103650897  140.086309999    66.8947   5  15   2.7080   2.3673   5.7383  -0.6452   1.2379  -2.3122   0.00    0.0
2019/12/15 00:06:58.000   36.103647599  140.086314800    67.3827   5  15   2.7081   2.3674   5.7380  -0.6458   1.2385  -2.3124   0.00    0.0
2019/12/15 00:06:59.000   36.103645283  140.086314404    67.7162   5  15   2.7081   2.3674   5.7378  -0.6463   1.2390  -2.3126   0.00    0.0
2019/12/15 00:07:00.000   36.103645586  140.086311438    67.6470   5  15   2.7082   2.3675   5.7375  -0.6469   1.2396  -2.3127   0.00    0.0
2019/12/15 00:07:01.000   36.103646311  140.086312248    67.7318   5  15   2.7082   2.3675   5.7373  -0.6475   1.2401  -2.3129   0.00    0.0
2019/12/15 00:07:02.000   36.103643886  140.086308823    68.4266   5  15   2.7083   2.3676   5.7370  -0.6481   1.2407  -2.3131   0.00    0.0
2019/12/15 00:07:03.000   36.103647867  140.086307674    67.5453   5  15   2.7083   2.3676   5.7368  -0.6486   1.2413  -2.3133   0.00    0.0
