% program   : RTKLIB ver.2.4.2
% inp file  : ../../data/0627239Q.obs
% inp file  : ../../data/sept_2019239.nav
% inp file  : ../../data/vrs2019239Q.obs
% obs start : 2019/08/27 16:00:02.0 UTC (week2068 230420.0s)
% obs end   : 2019/08/27 17:00:00.0 UTC (week2068 234018.0s)
% pos mode  : 
% solution  : forward
% elev mask : 15.0 deg
% dynamics  : on
% tidecorr  : off
% tropo opt : off
% ephemeris : broadcast
% navi sys  : gps galileo qzss
% antenna1  : TRM59800.80     NONE  ( 0.0000  0.0000  0.0000)
%
% (lat/lon/height=WGS84/ellipsoidal,Q=1:fix,2:float,3:sbas,4:dgps,5:single,6:ppp,ns=# of satellites)
%  UTC                   latitude(deg) longitude(deg)  height(m)   Q  ns   sdn(m)   sde(m)   sdu(m)  sdne(m)  sdeu(m)  sdun(m) age(s)  ratio
2019/08/27 16:00:02.000   36.103642823  140.086340509    70.5677   5  10   4.8299   5.1088  14.7841   1.9079   0.8850  -6.8878   0.00    0.0
2019/08/27 16:00:03.000   36.103643820  140.086320696    69.9005   5  13   3.2533   3.3272  10.5923  -1.7065   1.6012  -3.7798   0.00    0.0
2019/08/27 16:00:04.000   36.103637310  140.086319051    70.3133   5  13   3.2532   3.3274  10.5923  -1.7071   1.6032  -3.7795   0.00    0.0
2019/08/27 16:00:05.000   36.103634780  140.086321090    72.4370   5  13   3.2531   3.3275  10.5923  -1.7076   1.6052  -3.7791   0.00    0.0
2019/08/27 16:00:06.000   36.103633641  140.086315045    73.5806   5  13   3.2530   3.3276  10.5923  -1.7082   1.6071  -3.7788   0.00    0.0
2019/08/27 16:00:07.000   36.103633635  140.086319603    74.5264   5  13   3.2529   3.3277  10.5924  -1.7087   1.6091  -3.7784   0.00    0.0
2019/08/27 16:00:08.000   36.103636822  140.086324572    72.0173   5  13   3.2528   3.3279  10.5924  -1.7093   1.6111  -3.7781   0.00    0.0
2019/08/27 16:00:09.000   36.103635581  140.086314929    71.0576   5  13   3.2526   3.3280  10.5924  -1.7098   1.6130  -3.7777   0.00    0.0
2019/08/27 16:00:10.000   36.103635876  140.086320993    70.2166   5  13   3.2525   3.3281  10.5924  -1.7104   1.6150  -3.7774   0.00    0.0
2019/08/27 16:00:11.000   36.103644441  140.086303614    69.6130   5  13   3.2524   3.3283  10.5924  -1.7110   1.6170  -3.7770   0.00    0.0
2019/08/27 16:00:12.000   36.103638296  140.086310978    70.0767   5  13   3.2523   3.3284  10.5924  -1.7115   1.6189  -3.7767   0.00    0.0
2019/08/27 16:00:13.000   36.103638600  140.086311203    71.7598   5  13   3.2522   3.3285  10.5924  -1.7121   1.6209  -3.7763   0.00    0.0
2019/08/27 16:00:14.000   36.103632633  140.086317603    71.9336   5  13   3.2521   3.3287  10.5924  -1.7126   1.6228  -3.7760   0.00    0.0
2019/08/27 16:00:15.000   36.103636359  140.086317863    70.5757   5  13   3.2520   3.3288  10.5925  -1.7132   1.6248  -3.7757   0.00    0.0
2019/08/27 16:00:16.000   36.103634787  140.086308031    71.0533   5  13   3.2519   3.3289  10.5925  -1.7137   1.6268  -3.7753   0.00    0.0
2019/08/27 16:00:17.000   36.103634585  140.086310050    71.8329   5  13   3.2518   3.3291  10.5925  -1.7143   1.6287  -3.7750   0.00    0.0
2019/08/27 16:00:18.000   36.103638055  140.086318313    72.9196   5  13   3.2517   3.3292  10.5925  -1.7148   1.6306  -3.7746   0.00    0.0
2019/08/27 16:00:19.000   36.103633050  140.086310923    71.5653   5  13   3.2516   3.3293  10.5925  -1.7154   1.6326  -3.7743   0.00    0.0
2019/08/27 16:00:20.000   36.103635830  140.086315317    70.8150   5  13   3.2515   3.3295  10.5925  -1.7159   1.6345  -3.7739   0.00    0.0
2019/08/27 16:00:21.000   36.103636221  140.086314955    72.0245   5  13   3.2514   3.3296  10.5925  -1.7165   1.6365  -3.7736   0.00    0.0
2019/08/27 16:00:22.000   36.103634240  140.086310732    72.1082   5  13   3.2513   3.3297  10.5925  -1.7170   1.6384  -3.7733   0.00    0.0
2019/08/27 16:00:23.000   36.103634644  140.086305561    71.5302   5  13   3.2512   3.3299  10.5925  -1.7176   1.6404  -3.7729   0.00    0.0
2019/08/27 16:00:24.000   36.103635228  140.086324524    71.4823   5  13   3.2510   3.3300  10.5925  -1.7181   1.6423  -3.7726   0.00    0.0
2019/08/27 16:00:25.000   36.103634547  140.086317815    69.6419   5  13   3.2509   3.3302  10.5925  -1.7187   1.6442  -3.7722   0.00    0.0
2019/08/27 16:00:26.000   36.103633067  140.086318317    72.8234   5  13   3.2508   3.3303  10.5925  -1.7192   1.6462  -3.7719   0.00    0.0
2019/08/27 16:00:27.000   36.103639405  140.086318291    72.7744   5  13   3.2507   3.3304  10.5925  -1.7198   1.6481  -3.7716   0.00    0.0
2019/08/27 16:00:28.000   36.103637637  140.086319515    71.3033   5  13   3.2506   3.3306  10.5925  -1.7203   1.6500  -3.7712   0.00    0.0
2019/08/27 16:00:29.000   36.103629591  140.086320554    72.9704   5  13   3.2505   3.3307  10.5925  -1.7209   1.6519  -3.7709   0.00    0.0
2019/08/27 16:00:30.000   36.103635239  140.086317515    71.1562   5  13   3.2504   3.3308  10.5925  -1.7214   1.6539  -3.7705   0.00    0.0
2019/08/27 16:00:31.000   36.103627703  140.086316797    71.6967   5  13   3.2503   3.3310  10.5925  -1.7220   1.6558  -3.7702   0.00    0.0
2019/08/27 16:00:32.000   36.103632634  140.086318262    70.6069   5  13   3.2502   3.3311  10.5925  -1.7225   1.6577  -3.7699   0.00    0.0
2019/08/27 16:00:33.000   36.103628686  140.086313813    70.9349   5  13   3.2501   3.3312  10.5925  -1.7231   1.6596  -3.7695   0.00    0.0
2019/08/27 16:00:34.000   36.103636312  140.086307462    69.5999   5  13   3.2500   3.3314  10.5925  -1.7236   1.6615  -3.7692   0.00    0.0
2019/08/27 16:00:35.000   36.103638646  140.086313511    72.3115   5  13   3.2499   3.3315  10.5925  -1.7242   1.6634  -3.7688   0.00    0.0
2019/08/27 16:00:36.000   36.103633806  140.086311269    71.9014   5  13   3.2498   3.3316  10.5925  -1.7247   1.6654  -3.7685   0.00    0.0
2019/08/27 16:00:37.000   36.103631425  140.086312373    71.5557   5  13   3.2497   3.3318  10.5925  -1.7253   1.6673  -3.7682   0.00    0.0
2019/08/27 16:00:38.000   36.103640111  140.086317436    69.2972   5  13   3.2496   3.3319  10.5925  -1.7258   1.6692  -3.7678   0.00    0.0
2019/08/27 16:00:39.000   36.103639514  140.086310816    73.0885   5  13   3.2495   3.3321  10.5925  -1.7264   1.6711  -3.7675   0.00    0.0
2019/08/27 16:00:40.000   36.103634183  140.086309931    72.0053   5  13   3.2494   3.3322  10.5925  -1.7269   1.6730  -3.7672   0.00    0.0
2019/08/27 16:00:41.000   36.103637642  140.086314578    70.4998   5  13   3.2493   3.3323  10.5925  -1.7275   1.6749  -3.7668   0.00    0.0
2019/08/27 16:00:42.000   36.103636974  140.086310360    72.5340   5  13   3.2492   3.3325  10.5925  -1.7280   1.6768  -3.7665   0.00    0.0
2019/08/27 16:00:43.000   36.103631231  140.086316932    71.7497   5  13   3.2491   3.3326  10.5925  -1.7286   1.6787  -3.7662   0.00    0.0
2019/08/27 16:00:44.000   36.103634431  140.086308998    72.9111   5  13   3.2490   3.3327  10.5925  -1.7291   1.6806  -3.7658   0.00    0.0
2019/08/27 16:00:45.000   36.103634305  140.086316962    69.9071   5  13   3.2489   3.3329  10.5925  -1.7297   1.6825  -3.7655   0.00    0.0
2019/08/27 16:00:46.000   36.103635761  140.086316122    71.7345   5  13   3.2488   3.3330  10.5925  -1.7302   1.6844  -3.7651   0.00    0.0
2019/08/27 16:00:47.000   36.103636918  140.086312969    73.1070   5  13   3.2486   3.3332  10.5925  -1.7308   1.6862  -3.7648   0.00    0.0
2019/08/27 16:00:48.000   36.103643548  140.086321246    72.6554   5  13   3.2485   3.3333  10.5925  -1.7313   1.6881  -3.7645   0.00    0.0
2019/08/27 16:00:49.000   36.103641618  140.086319537    70.6246   5  13   3.2484   3.3334  10.5925  -1.7319   1.6900  -3.7641   0.00    0.0
2019/08/27 16:00:50.000   36.103632772  140.086320460    71.2354   5  13   3.2483   3.3336  10.5925  -1.7324   1.6919  -3.7638   0.00    0.0
2019/08/27 16:00:51.000   36.103636873  140.086311148    70.2915   5  13   3.2482   3.3337  10.5924  -1.7329   1.6938  -3.7635   0.00    0.0
2019/08/27 16:00:52.000   36.103641941  140.086312136    69.5151   5  13   3.2481   3.3339  10.5924  -1.7335   1.6957  -3.7632   0.00    0.0
2019/08/27 16:00:53.000   36.103638519  140.086311148    72.3684   5  13   3.2480   3.3340  10.5924  -1.7340   1.6975  -3.7628   0.00    0.0
2019/08/27 16:00:54.000   36.103641713  140.086313695    69.5727   5  13   3.2479   3.3341  10.5924  -1.7346   1.6994  -3.7625   0.00    0.0
2019/08/27 16:00:55.000   36.103638339  140.086318494    73.4193   5  13   3.2478   3.3343  10.5924  -1.7351   1.7013  -3.7622   0.00    0.0
2019/08/27 16:00:56.000   36.103632000  140.086317458    70.4776   5  13   3.2477   3.3344  10.5924  -1.7357   1.7032  -3.7618   0.00    0.0
2019/08/27 16:00:57.000   36.103636009  140.086311777    70.5151   5  13   3.2476   3.3346  10.5924  -1.7362   1.7050  -3.7615   0.00    0.0
2019/08/27 16:00:58.000   36.103636861  140.086313219    72.6911   5  13   3.2475   3.3347  10.5924  -1.7368   1.7069  -3.7612   0.00    0.0
2019/08/27 16:00:59.000   36.103639540  140.086322998    72.3637   5  13   3.2474   3.3348  10.5924  -1.7373   1.7088  -3.7608   0.00    0.0
2019/08/27 16:01:00.000   36.103637243  140.086319018    69.5703   5  13   3.2473   3.3350  10.5923  -1.7378   1.7106  -3.7605   0.00    0.0
2019/08/27 16:01:01.000   36.103637328  140.086321197    69.6716   5  13   3.2472   3.3351  10.5923  -1.7384   1.7125  -3.7602   0.00    0.0
2019/08/27 16:01:02.000   36.103637689  140.086318787    70.8083   5  13   3.2471   3.3353  10.5923  -1.7389   1.7144  -3.7598   0.00    0.0
2019/08/27 16:01:03.000   36.103636383  140.086317431    71.1356   5  13   3.2470   3.3354  10.5923  -1.7395   1.7162  -3.7595   0.00    0.0
2019/08/27 16:01:04.000   36.103638111  140.086320138    72.7507   5  13   3.2469   3.3355  10.5923  -1.7400   1.7181  -3.7592   0.00    0.0
2019/08/27 16:01:05.000   36.103640516  140.086315729    70.6606   5  13   3.2468   3.3357  10.5923  -1.7406   1.7199  -3.7589   0.00    0.0
2019/08/27 16:01:06.000   36.103636960  140.086319218    71.5702   5  13   3.2467   3.3358  10.5923  -1.7411   1.7218  -3.7585   0.00    0.0
2019/08/27 16:01:07.000   36.103636253  140.086312491    71.8150   5  13   3.2466   3.3360  10.5922  -1.7416   1.7236  -3.7582   0.00    0.0
2019/08/27 16:01:08.000   36.103642305  140.086309033    71.2109   5  13   3.2465   3.3361  10.5922  -1.7422   1.7255  -3.7579   0.00    0.0
2019/08/27 16:01:09.000   36.103641565  140.086319550    70.4605   5  13   3.2464   3.3362  10.5922  -1.7427   1.7273  -3.7576   0.00    0.0
2019/08/27 16:01:10.000   36.103640064  140.086312535    70.5019   5  13   3.2463   3.3364  10.5922  -1.7433   1.7292  -3.7572   0.00    0.0
2019/08/27 16:01:11.000   36.103637369  140.086316120    71.2660   5  13   3.2462   3.3365  10.5922  -1.7438   1.7310  -3.7569   0.00    0.0
2019/08/27 16:01:12.000   36.103634618  140.086321479    70.2808   5  13   3.2461   3.3367  10.5921  -1.7443   1.7329  -3.7566   0.00    0.0
2019/08/27 16:01:13.000   36.103639236  140.086315576    71.4464   5  13   3.2460   3.3368  10.5921  -1.7449   1.7347  -3.7562   0.00    0.0
2019/08/27 16:01:14.000   36.103636123  140.086316080    70.3138   5  13   3.2459   3.3370  10.5921  -1.7454   1.7366  -3.7559   0.00    0.0
2019/08/27 16:01:15.000   36.103638933  140.086314207    70.0693   5  13   3.2458   3.3371  10.5921  -1.7460   1.7384  -3.7556   0.00    0.0
2019/08/27 16:01:16.000   36.103632231  140.086320446    71.8275   5  13   3.2457   3.3372  10.5921  -1.7465   1.7402  -3.7553   0.00    0.0
2019/08/27 16:01:17.000   36.103635436  140.086314512    71.1802   5  13   3.2456   3.3374  10.5920  -1.7470   1.7421  -3.7549   0.00    0.0
2019/08/27 16:01:18.000   36.103635796  140.086314348    70.9604   5  13   3.2455   3.3375  10.5920  -1.7476   1.7439  -3.7546   0.00    0.0
2019/08/27 16:01:19.000   36.103636113  140.086316542    71.1184   5  13   3.2454   3.3377  10.5920  -1.7481   1.7457  -3.7543   0.00    0.0
2019/08/27 16:01:20.000   36.103638806  140.086310671    69.0291   5  13   3.2453   3.3378  10.5920  -1.7487   1.7476  -3.7540   0.00    0.0
2019/08/27 16:01:21.000   36.103634268  140.086316248    72.0771   5  13   3.2452   3.3380  10.5919  -1.7492   1.7494  -3.7537   0.00    0.0
2019/08/27 16:01:22.000   36.103632446  140.086318081    70.8163   5  13   3.2451   3.3381  10.5919  -1.7497   1.7512  -3.7533   0.00    0.0
2019/08/27 16:01:23.000   36.103635058  140.086312631    70.4073   5  13   3.2450   3.3382  10.5919  -1.7503   1.7530  -3.7530   0.00    0.0
2019/08/27 16:01:24.000   36.103639319  140.086311573    70.6522   5  13   3.2449   3.3384  10.5919  -1.7508   1.7549  -3.7527   0.00    0.0
2019/08/27 16:01:25.000   36.103637316  140.086314738    70.8955   5  13   3.2448   3.3385  10.5918  -1.7514   1.7567  -3.7524   0.00    0.0
2019/08/27 16:01:26.000   36.103635761  140.086311429    70.9736   5  13   3.2447   3.3387  10.5918  -1.7519   1.7585  -3.7520   0.00    0.0
2019/08/27 16:01:27.000   36.103635619  140.086319036    69.5651   5  13   3.2447   3.3388  10.5918  -1.7524   1.7603  -3.7517   0.00    0.0
2019/08/27 16:01:28.000   36.103639563  140.086320298    68.7663   5  13   3.2446   3.3390  10.5918  -1.7530   1.7621  -3.7514   0.00    0.0
2019/08/27 16:01:29.000   36.103637281  140.086312064    71.3368   5  13   3.2445   3.3391  10.5917  -1.7535   1.7639  -3.7511   0.00    0.0
2019/08/27 16:01:30.000   36.103631239  140.086314280    72.3431   5  13   3.2444   3.3393  10.5917  -1.7540   1.7658  -3.7508   0.00    0.0
2019/08/27 16:01:31.000   36.103638703  140.086317551    68.8470   5  13   3.2443   3.3394  10.5917  -1.7546   1.7676  -3.7504   0.00    0.0
2019/08/27 16:01:32.000   36.103639345  140.086316059    69.4460   5  13   3.2442   3.3396  10.5917  -1.7551   1.7694  -3.7501   0.00    0.0
2019/08/27 16:01:33.000   36.103639088  140.086317209    70.4922   5  13   3.2441   3.3397  10.5916  -1.7557   1.7712  -3.7498   0.00    0.0
2019/08/27 16:01:34.000   36.103633689  140.086321769    69.8776   5  13   3.2440   3.3398  10.5916  -1.7562   1.7730  -3.7495   0.00    0.0
2019/08/27 16:01:35.000   36.103636205  140.086325349    70.0575   5  13   3.2439   3.3400  10.5916  -1.7567   1.7748  -3.7492   0.00    0.0
2019/08/27 16:01:36.000   36.103633603  140.086320279    70.8505   5  13   3.2438   3.3401  10.5915  -1.7573   1.7766  -3.7488   0.00    0.0
2019/08/27 16:01:37.000   36.103631331  140.086324558    69.8401   5  13   3.2437   3.3403  10.5915  -1.7578   1.7784  -3.7485   0.00    0.0
2019/08/27 16:01:38.000   36.103630353  140.086317245    72.8974   5  13   3.2436   3.3404  10.5915  -1.7583   1.7802  -3.7482   0.00    0.0
2019/08/27 16:01:39.000   36.103636513  140.086323905    70.8048   5  13   3.2435   3.3406  10.5914  -1.7589   1.7820  -3.7479   0.00    0.0
2019/08/27 16:01:40.000   36.103637451  140.086319892    72.5972   5  13   3.2434   3.3407  10.5914  -1.7594   1.7838  -3.7476   0.00    0.0
2019/08/27 16:01:41.000   36.103640304  140.086320189    69.4728   5  13   3.2433   3.3409  10.5914  -1.7599   1.7856  -3.7473   0.00    0.0
2019/08/27 16:01:42.000   36.103636539  140.086320612    70.9031   5  13   3.2432   3.3410  10.5913  -1.7605   1.7874  -3.7469   0.00    0.0
2019/08/27 16:01:43.000   36.103631588  140.086323958    72.4947   5  13   3.2431   3.3412  10.5913  -1.7610   1.7892  -3.7466   0.00    0.0
2019/08/27 16:01:44.000   36.103634653  140.086325066    72.2654   5  13   3.2430   3.3413  10.5913  -1.7615   1.7910  -3.7463   0.00    0.0
2019/08/27 16:01:45.000   36.103636847  140.086324218    73.7909   5  13   3.2429   3.3415  10.5912  -1.7621   1.7927  -3.7460   0.00    0.0
2019/08/27 16:01:46.000   36.103634281  140.086321239    70.1931   5  13   3.2428   3.3416  10.5912  -1.7626   1.7945  -3.7457   0.00    0.0
2019/08/27 16:01:47.000   36.103637476  140.086315958    71.6135   5  13   3.2427   3.3418  10.5912  -1.7631   1.7963  -3.7454   0.00    0.0
2019/08/27 16:01:48.000   36.103634153  140.086322850    68.8364   5  13   3.2426   3.3419  10.5911  -1.7637   1.7981  -3.7451   0.00    0.0
2019/08/27 16:01:49.000   36.103633924  140.086324905    70.9470   5  13   3.2425   3.3420  10.5911  -1.7642   1.7999  -3.7447   0.00    0.0
2019/08/27 16:01:50.000   36.103632643  140.086315012    70.7805   5  13   3.2425   3.3422  10.5910  -1.7647   1.8017  -3.7444   0.00    0.0
2019/08/27 16:01:51.000   36.103636202  140.086318981    70.6689   5  13   3.2424   3.3423  10.5910  -1.7653   1.8034  -3.7441   0.00    0.0
2019/08/27 16:01:52.000   36.103634766  140.086323247    74.2457   5  13   3.2423   3.3425  10.5910  -1.7658   1.8052  -3.7438   0.00    0.0
2019/08/27 16:01:53.000   36.103628385  140.086322698    71.1780   5  13   3.2422   3.3426  10.5909  -1.7663   1.8070  -3.7435   0.00    0.0
2019/08/27 16:01:54.000   36.103634557  140.086322509    71.4473   5  13   3.2421   3.3428  10.5909  -1.7669   1.8088  -3.7432   0.00    0.0
2019/08/27 16:01:55.000   36.103630202  140.086314479    70.8822   5  13   3.2420   3.3429  10.5908  -1.7674   1.8105  -3.7429   0.00    0.0
2019/08/27 16:01:56.000   36.103639774  140.086318911    69.4944   5  13   3.2419   3.3431  10.5908  -1.7679   1.8123  -3.7426   0.00    0.0
2019/08/27 16:01:57.000   36.103641493  140.086320721    71.4188   5  13   3.2418   3.3432  10.5908  -1.7685   1.8141  -3.7422   0.00    0.0
2019/08/27 16:01:58.000   36.103634387  140.086317433    72.0228   5  13   3.2417   3.3434  10.5907  -1.7690   1.8158  -3.7419   0.00    0.0
2019/08/27 16:01:59.000   36.103639124  140.086321170    70.3188   5  13   3.2416   3.3435  10.5907  -1.7695   1.8176  -3.7416   0.00    0.0
2019/08/27 16:02:00.000   36.103634369  140.086319326    70.4602   5  13   3.2415   3.3437  10.5906  -1.7700   1.8194  -3.7413   0.00    0.0
2019/08/27 16:02:01.000   36.103632263  140.086321896    73.0643   5  13   3.2414   3.3438  10.5906  -1.7706   1.8211  -3.7410   0.00    0.0
2019/08/27 16:02:02.000   36.103637840  140.086330424    71.5112   5  13   3.2413   3.3440  10.5905  -1.7711   1.8229  -3.7407   0.00    0.0
2019/08/27 16:02:03.000   36.103638288  140.086324976    71.9780   5  13   3.2412   3.3441  10.5905  -1.7716   1.8247  -3.7404   0.00    0.0
2019/08/27 16:02:04.000   36.103633156  140.086321882    72.2161   5  13   3.2411   3.3443  10.5904  -1.7722   1.8264  -3.7401   0.00    0.0
2019/08/27 16:02:05.000   36.103638977  140.086326570    73.8068   5  13   3.2411   3.3444  10.5904  -1.7727   1.8282  -3.7398   0.00    0.0
2019/08/27 16:02:06.000   36.103640862  140.086319336    71.9314   5  13   3.2410   3.3446  10.5903  -1.7732   1.8299  -3.7395   0.00    0.0
2019/08/27 16:02:07.000   36.103633357  140.086320621    74.4868   5  13   3.2409   3.3447  10.5903  -1.7738   1.8317  -3.7392   0.00    0.0
2019/08/27 16:02:08.000   36.103631483  140.086325758    71.9379   5  13   3.2408   3.3449  10.5903  -1.7743   1.8334  -3.7388   0.00    0.0
2019/08/27 16:02:09.000   36.103635530  140.086322335    70.1417   5  13   3.2407   3.3450  10.5902  -1.7748   1.8352  -3.7385   0.00    0.0
2019/08/27 16:02:10.000   36.103633556  140.086321066    73.7177   5  13   3.2406   3.3452  10.5902  -1.7753   1.8369  -3.7382   0.00    0.0
2019/08/27 16:02:11.000   36.103631323  140.086331850    71.0039   5  13   3.2405   3.3453  10.5901  -1.7759   1.8387  -3.7379   0.00    0.0
2019/08/27 16:02:12.000   36.103634901  140.086315409    70.7634   5  13   3.2404   3.3455  10.5901  -1.7764   1.8404  -3.7376   0.00    0.0
2019/08/27 16:02:13.000   36.103638179  140.086323643    71.5852   5  13   3.2403   3.3457  10.5900  -1.7769   1.8422  -3.7373   0.00    0.0
2019/08/27 16:02:14.000   36.103632217  140.086328763    72.3062   5  13   3.2402   3.3458  10.5900  -1.7775   1.8439  -3.7370   0.00    0.0
2019/08/27 16:02:15.000   36.103636826  140.086321755    72.7808   5  13   3.2401   3.3460  10.5899  -1.7780   1.8457  -3.7367   0.00    0.0
2019/08/27 16:02:16.000   36.103635020  140.086326691    71.5784   5  13   3.2400   3.3461  10.5899  -1.7785   1.8474  -3.7364   0.00    0.0
2019/08/27 16:02:17.000   36.103637860  140.086320861    72.5570   5  13   3.2400   3.3463  10.5898  -1.7790   1.8491  -3.7361   0.00    0.0
2019/08/27 16:02:18.000   36.103639141  140.086326104    70.1592   5  13   3.2399   3.3464  10.5897  -1.7796   1.8509  -3.7358   0.00    0.0
2019/08/27 16:02:19.000   36.103636249  140.086325916    73.1224   5  13   3.2398   3.3466  10.5897  -1.7801   1.8526  -3.7355   0.00    0.0
2019/08/27 16:02:20.000   36.103633481  140.086333129    72.5963   5  13   3.2397   3.3467  10.5896  -1.7806   1.8543  -3.7352   0.00    0.0
2019/08/27 16:02:21.000   36.103633140  140.086323876    71.6332   5  13   3.2396   3.3469  10.5896  -1.7811   1.8561  -3.7349   0.00    0.0
2019/08/27 16:02:22.000   36.103634285  140.086324657    70.3184   5  13   3.2395   3.3470  10.5895  -1.7817   1.8578  -3.7346   0.00    0.0
2019/08/27 16:02:23.000   36.103636772  140.086324714    70.8771   5  13   3.2394   3.3472  10.5895  -1.7822   1.8595  -3.7343   0.00    0.0
2019/08/27 16:02:24.000   36.103631773  140.086329936    73.8426   5  13   3.2393   3.3473  10.5894  -1.7827   1.8613  -3.7340   0.00    0.0
2019/08/27 16:02:25.000   36.103635494  140.086325806    73.8641   5  13   3.2392   3.3475  10.5894  -1.7832   1.8630  -3.7337   0.00    0.0
2019/08/27 16:02:26.000   36.103637415  140.086324562    72.3251   5  13   3.2391   3.3476  10.5893  -1.7838   1.8647  -3.7334   0.00    0.0
2019/08/27 16:02:27.000   36.103628246  140.086323129    71.8967   5  13   3.2391   3.3478  10.5892  -1.7843   1.8665  -3.7331   0.00    0.0
2019/08/27 16:02:28.000   36.103636786  140.086328562    70.9171   5  13   3.2390   3.3479  10.5892  -1.7848   1.8682  -3.7328   0.00    0.0
2019/08/27 16:02:29.000   36.103640896  140.086326964    71.5959   5  13   3.2389   3.3481  10.5891  -1.7853   1.8699  -3.7325   0.00    0.0
2019/08/27 16:02:30.000   36.103634629  140.086321919    72.4320   5  13   3.2388   3.3483  10.5891  -1.7859   1.8716  -3.7322   0.00    0.0
2019/08/27 16:02:31.000   36.103636994  140.086322189    71.6599   5  13   3.2387   3.3484  10.5890  -1.7864   1.8733  -3.7319   0.00    0.0
2019/08/27 16:02:32.000   36.103638370  140.086330159    71.9410   5  13   3.2386   3.3486  10.5890  -1.7869   1.8750  -3.7316   0.00    0.0
2019/08/27 16:02:33.000   36.103639888  140.086321094    71.1273   5  13   3.2385   3.3487  10.5889  -1.7874   1.8768  -3.7313   0.00    0.0
2019/08/27 16:02:34.000   36.103639307  140.086317978    71.5577   5  13   3.2384   3.3489  10.5888  -1.7880   1.8785  -3.7310   0.00    0.0
2019/08/27 16:02:35.000   36.103637691  140.086322391    71.3568   5  13   3.2384   3.3490  10.5888  -1.7885   1.8802  -3.7307   0.00    0.0
2019/08/27 16:02:36.000   36.103636430  140.086324840    70.9050   5  13   3.2383   3.3492  10.5887  -1.7890   1.8819  -3.7304   0.00    0.0
2019/08/27 16:02:37.000   36.103641022  140.086317876    72.0997   5  13   3.2382   3.3493  10.5886  -1.7895   1.8836  -3.7301   0.00    0.0
2019/08/27 16:02:38.000   36.103645129  140.086314073    68.3365   5  13   3.2381   3.3495  10.5886  -1.7901   1.8853  -3.7298   0.00    0.0
2019/08/27 16:02:39.000   36.103636176  140.086321710    69.8164   5  13   3.2380   3.3497  10.5885  -1.7906   1.8870  -3.7295   0.00    0.0
2019/08/27 16:02:40.000   36.103637831  140.086320445    69.7760   5  13   3.2379   3.3498  10.5885  -1.7911   1.8887  -3.7292   0.00    0.0
2019/08/27 16:02:41.000   36.103639188  140.086317084    69.2559   5  13   3.2378   3.3500  10.5884  -1.7916   1.8905  -3.7289   0.00    0.0
2019/08/27 16:02:42.000   36.103639149  140.086319635    68.9544   5  13   3.2377   3.3501  10.5883  -1.7921   1.8922  -3.7286   0.00    0.0
2019/08/27 16:02:43.000   36.103642835  140.086309376    70.8387   5  13   3.2376   3.3503  10.5883  -1.7927   1.8939  -3.7283   0.00    0.0
2019/08/27 16:02:44.000   36.103637526  140.086322916    72.4166   5  13   3.2376   3.3504  10.5882  -1.7932   1.8956  -3.7280   0.00    0.0
2019/08/27 16:02:45.000   36.103642269  140.086319413    70.8947   5  13   3.2375   3.3506  10.5881  -1.7937   1.8973  -3.7277   0.00    0.0
2019/08/27 16:02:46.000   36.103641781  140.086328293    69.3039   5  13   3.2374   3.3508  10.5881  -1.7942   1.8989  -3.7274   0.00    0.0
2019/08/27 16:02:47.000   36.103639518  140.086318682    71.5598   5  13   3.2373   3.3509  10.5880  -1.7948   1.9006  -3.7271   0.00    0.0
2019/08/27 16:02:48.000   36.103640860  140.086312450    71.0348   5  13   3.2372   3.3511  10.5879  -1.7953   1.9023  -3.7268   0.00    0.0
2019/08/27 16:02:49.000   36.103636364  140.086326203    71.8676   5  13   3.2371   3.3512  10.5879  -1.7958   1.9040  -3.7265   0.00    0.0
2019/08/27 16:02:50.000   36.103639270  140.086316323    72.0216   5  13   3.2370   3.3514  10.5878  -1.7963   1.9057  -3.7262   0.00    0.0
2019/08/27 16:02:51.000   36.103639234  140.086314673    69.2272   5  13   3.2370   3.3515  10.5877  -1.7968   1.9074  -3.7259   0.00    0.0
2019/08/27 16:02:52.000   36.103637362  140.086318800    70.1548   5  13   3.2369   3.3517  10.5876  -1.7974   1.9091  -3.7257   0.00    0.0
2019/08/27 16:02:53.000   36.103635186  140.086314450    71.2660   5  13   3.2368   3.3519  10.5876  -1.7979   1.9108  -3.7254   0.00    0.0
2019/08/27 16:02:54.000   36.103636935  140.086318674    69.8058   5  13   3.2367   3.3520  10.5875  -1.7984   1.9125  -3.7251   0.00    0.0
2019/08/27 16:02:55.000   36.103643604  140.086310483    69.2691   5  13   3.2366   3.3522  10.5874  -1.7989   1.9142  -3.7248   0.00    0.0
2019/08/27 16:02:56.000   36.103640362  140.086313154    69.9913   5  13   3.2365   3.3523  10.5874  -1.7994   1.9159  -3.7245   0.00    0.0
2019/08/27 16:02:57.000   36.103635730  140.086311273    70.4575   5  13   3.2364   3.3525  10.5873  -1.8000   1.9175  -3.7242   0.00    0.0
2019/08/27 16:02:58.000   36.103632852  140.086313410    70.3608   5  13   3.2364   3.3526  10.5872  -1.8005   1.9192  -3.7239   0.00    0.0
2019/08/27 16:02:59.000   36.103640100  140.086317353    70.4636   5  13   3.2363   3.3528  10.5871  -1.8010   1.9209  -3.7236   0.00    0.0
2019/08/27 16:03:00.000   36.103637991  140.086315989    68.8607   5  13   3.2362   3.3530  10.5871  -1.8015   1.9226  -3.7233   0.00    0.0
2019/08/27 16:03:01.000   36.103637163  140.086310166    70.0039   5  13   3.2361   3.3531  10.5870  -1.8020   1.9243  -3.7230   0.00    0.0
2019/08/27 16:03:02.000   36.103637588  140.086318575    69.2680   5  13   3.2360   3.3533  10.5869  -1.8025   1.9259  -3.7227   0.00    0.0
2019/08/27 16:03:03.000   36.103640707  140.086317789    69.5130   5  13   3.2359   3.3534  10.5868  -1.8031   1.9276  -3.7225   0.00    0.0
2019/08/27 16:03:04.000   36.103633778  140.086314879    69.4748   5  13   3.2358   3.3536  10.5868  -1.8036   1.9293  -3.7222   0.00    0.0
2019/08/27 16:03:05.000   36.103638785  140.086318222    70.0019   5  13   3.2358   3.3538  10.5867  -1.8041   1.9310  -3.7219   0.00    0.0
2019/08/27 16:03:06.000   36.103635437  140.086316262    71.9497   5  13   3.2357   3.3539  10.5866  -1.8046   1.9326  -3.7216   0.00    0.0
2019/08/27 16:03:07.000   36.103642158  140.086327990    69.1266   5  13   3.2356   3.3541  10.5865  -1.8051   1.9343  -3.7213   0.00    0.0
2019/08/27 16:03:08.000   36.103639605  140.086315100    70.6131   5  13   3.2355   3.3542  10.5865  -1.8056   1.9360  -3.7210   0.00    0.0
2019/08/27 16:03:09.000   36.103638672  140.086319204    68.9550   5  13   3.2354   3.3544  10.5864  -1.8062   1.9376  -3.7207   0.00    0.0
2019/08/27 16:03:10.000   36.103631878  140.086320345    71.0152   5  13   3.2353   3.3546  10.5863  -1.8067   1.9393  -3.7204   0.00    0.0
2019/08/27 16:03:11.000   36.103636273  140.086319329    72.8246   5  13   3.2353   3.3547  10.5862  -1.8072   1.9410  -3.7202   0.00    0.0
2019/08/27 16:03:12.000   36.103637225  140.086323738    70.7983   5  13   3.2352   3.3549  10.5861  -1.8077   1.9426  -3.7199   0.00    0.0
2019/08/27 16:03:13.000   36.103637331  140.086320805    72.0517   5  13   3.2351   3.3550  10.5861  -1.8082   1.9443  -3.7196   0.00    0.0
2019/08/27 16:03:14.000   36.103633161  140.086315123    72.1491   5  13   3.2350   3.3552  10.5860  -1.8087   1.9460  -3.7193   0.00    0.0
2019/08/27 16:03:15.000   36.103637978  140.086318302    73.8052   5  13   3.2349   3.3554  10.5859  -1.8093   1.9476  -3.7190   0.00    0.0
2019/08/27 16:03:16.000   36.103638562  140.086327505    69.9188   5  13   3.2348   3.3555  10.5858  -1.8098   1.9493  -3.7187   0.00    0.0
2019/08/27 16:03:17.000   36.103634614  140.086316624    69.4868   5  13   3.2348   3.3557  10.5857  -1.8103   1.9509  -3.7184   0.00    0.0
2019/08/27 16:03:18.000   36.103637410  140.086319229    69.3013   5  13   3.2347   3.3559  10.5856  -1.8108   1.9526  -3.7182   0.00    0.0
2019/08/27 16:03:19.000   36.103631629  140.086323241    71.4090   5  13   3.2346   3.3560  10.5856  -1.8113   1.9542  -3.7179   0.00    0.0
2019/08/27 16:03:20.000   36.103638577  140.086314817    70.5912   5  13   3.2345   3.3562  10.5855  -1.8118   1.9559  -3.7176   0.00    0.0
2019/08/27 16:03:21.000   36.103637409  140.086308708    68.8558   5  13   3.2344   3.3563  10.5854  -1.8124   1.9576  -3.7173   0.00    0.0
2019/08/27 16:03:22.000   36.103629857  140.086321848    71.1373   5  13   3.2344   3.3565  10.5853  -1.8129   1.9592  -3.7170   0.00    0.0
2019/08/27 16:03:23.000   36.103632941  140.086322672    69.2044   5  13   3.2343   3.3567  10.5852  -1.8134   1.9609  -3.7168   0.00    0.0
2019/08/27 16:03:24.000   36.103634104  140.086321229    71.2734   5  13   3.2342   3.3568  10.5851  -1.8139   1.9625  -3.7165   0.00    0.0
2019/08/27 16:03:25.000   36.103633147  140.086320697    69.8315   5  13   3.2341   3.3570  10.5850  -1.8144   1.9642  -3.7162   0.00    0.0
2019/08/27 16:03:26.000   36.103638621  140.086315373    68.0940   5  13   3.2340   3.3572  10.5850  -1.8149   1.9658  -3.7159   0.00    0.0
2019/08/27 16:03:27.000   36.103640806  140.086310749    67.8405   5  13   3.2339   3.3573  10.5849  -1.8154   1.9674  -3.7156   0.00    0.0
2019/08/27 16:03:28.000   36.103632012  140.086320474    70.5760   5  13   3.2339   3.3575  10.5848  -1.8160   1.9691  -3.7153   0.00    0.0
2019/08/27 16:03:29.000   36.103631722  140.086322676    69.8355   5  13   3.2338   3.3577  10.5847  -1.8165   1.9707  -3.7151   0.00    0.0
2019/08/27 16:03:30.000   36.103632779  140.086313936    69.2220   5  13   3.2337   3.3578  10.5846  -1.8170   1.9724  -3.7148   0.00    0.0
2019/08/27 16:03:31.000   36.103639662  140.086322473    70.9316   5  13   3.2336   3.3580  10.5845  -1.8175   1.9740  -3.7145   0.00    0.0
2019/08/27 16:03:32.000   36.103641669  140.086317941    70.2068   5  13   3.2335   3.3581  10.5844  -1.8180   1.9757  -3.7142   0.00    0.0
2019/08/27 16:03:33.000   36.103633544  140.086325098    70.4735   5  13   3.2335   3.3583  10.5843  -1.8185   1.9773  -3.7140   0.00    0.0
2019/08/27 16:03:34.000   36.103633034  140.086319668    70.5675   5  13   3.2334   3.3585  10.5842  -1.8190   1.9789  -3.7137   0.00    0.0
2019/08/27 16:03:35.000   36.103633155  140.086315863    72.3062   5  13   3.2333   3.3586  10.5841  -1.8195   1.9806  -3.7134   0.00    0.0
2019/08/27 16:03:36.000   36.103637951  140.086317801    69.9464   5  13   3.2332   3.3588  10.5840  -1.8201   1.9822  -3.7131   0.00    0.0
2019/08/27 16:03:37.000   36.103635687  140.086321780    71.1228   5  13   3.2331   3.3590  10.5840  -1.8206   1.9838  -3.7128   0.00    0.0
2019/08/27 16:03:38.000   36.103630083  140.086324155    71.3825   5  13   3.2331   3.3591  10.5839  -1.8211   1.9855  -3.7126   0.00    0.0
2019/08/27 16:03:39.000   36.103637172  140.086316134    70.3396   5  13   3.2330   3.3593  10.5838  -1.8216   1.9871  -3.7123   0.00    0.0
2019/08/27 16:03:40.000   36.103629819  140.086319628    71.8310   5  13   3.2329   3.3595  10.5837  -1.8221   1.9887  -3.7120   0.00    0.0
2019/08/27 16:03:41.000   36.103634635  140.086313271    67.8362   5  13   3.2328   3.3596  10.5836  -1.8226   1.9904  -3.7117   0.00    0.0
2019/08/27 16:03:42.000   36.103634330  140.086318588    68.7231   5  13   3.2327   3.3598  10.5835  -1.8231   1.9920  -3.7115   0.00    0.0
2019/08/27 16:03:43.000   36.103636577  140.086315293    67.7509   5  13   3.2327   3.3600  10.5834  -1.8236   1.9936  -3.7112   0.00    0.0
2019/08/27 16:03:44.000   36.103633572  140.086315169    71.0657   5  13   3.2326   3.3601  10.5833  -1.8241   1.9952  -3.7109   0.00    0.0
2019/08/27 16:03:45.000   36.103633810  140.086322874    70.4984   5  13   3.2325   3.3603  10.5832  -1.8247   1.9968  -3.7106   0.00    0.0
2019/08/27 16:03:46.000   36.103637790  140.086322881    69.5276   5  13   3.2324   3.3605  10.5831  -1.8252   1.9985  -3.7104   0.00    0.0
2019/08/27 16:03:47.000   36.103639708  140.086317879    69.1860   5  13   3.2323   3.3606  10.5830  -1.8257   2.0001  -3.7101   0.00    0.0
2019/08/27 16:03:48.000   36.103630348  140.086310827    70.2358   5  13   3.2323   3.3608  10.5829  -1.8262   2.0017  -3.7098   0.00    0.0
2019/08/27 16:03:49.000   36.103638256  140.086316645    70.2711   5  13   3.2322   3.3610  10.5828  -1.8267   2.0033  -3.7095   0.00    0.0
2019/08/27 16:03:50.000   36.103638461  140.086319817    69.0500   5  13   3.2321   3.3611  10.5827  -1.8272   2.0049  -3.7093   0.00    0.0
2019/08/27 16:03:51.000   36.103638723  140.086316048    68.2403   5  13   3.2320   3.3613  10.5826  -1.8277   2.0066  -3.7090   0.00    0.0
2019/08/27 16:03:52.000   36.103630668  140.086315435    69.1093   5  13   3.2320   3.3615  10.5825  -1.8282   2.0082  -3.7087   0.00    0.0
2019/08/27 16:03:53.000   36.103634752  140.086319513    68.9408   5  13   3.2319   3.3616  10.5824  -1.8287   2.0098  -3.7085   0.00    0.0
2019/08/27 16:03:54.000   36.103634989  140.086319935    69.1636   5  13   3.2318   3.3618  10.5823  -1.8292   2.0114  -3.7082   0.00    0.0
2019/08/27 16:03:55.000   36.103633584  140.086317262    72.5485   5  13   3.2317   3.3620  10.5822  -1.8298   2.0130  -3.7079   0.00    0.0
2019/08/27 16:03:56.000   36.103640795  140.086313085    68.7698   5  13   3.2316   3.3621  10.5821  -1.8303   2.0146  -3.7076   0.00    0.0
2019/08/27 16:03:57.000   36.103638403  140.086317377    71.2787   5  13   3.2316   3.3623  10.5820  -1.8308   2.0162  -3.7074   0.00    0.0
2019/08/27 16:03:58.000   36.103639064  140.086314783    68.1186   5  13   3.2315   3.3625  10.5819  -1.8313   2.0178  -3.7071   0.00    0.0
2019/08/27 16:03:59.000   36.103632811  140.086317938    71.7896   5  13   3.2314   3.3626  10.5818  -1.8318   2.0195  -3.7068   0.00    0.0
2019/08/27 16:04:00.000   36.103636672  140.086316498    71.9889   5  13   3.2313   3.3628  10.5817  -1.8323   2.0211  -3.7066   0.00    0.0
2019/08/27 16:04:01.000   36.103638561  140.086316875    70.9761   5  13   3.2313   3.3630  10.5816  -1.8328   2.0227  -3.7063   0.00    0.0
2019/08/27 16:04:02.000   36.103636435  140.086319888    71.0869   5  13   3.2312   3.3631  10.5814  -1.8333   2.0243  -3.7060   0.00    0.0
2019/08/27 16:04:03.000   36.103631846  140.086322854    70.5392   5  13   3.2311   3.3633  10.5813  -1.8338   2.0259  -3.7058   0.00    0.0
2019/08/27 16:04:04.000   36.103631839  140.086321536    69.8314   5  13   3.2310   3.3635  10.5812  -1.8343   2.0275  -3.7055   0.00    0.0
2019/08/27 16:04:05.000   36.103639039  140.086316545    69.3917   5  13   3.2309   3.3637  10.5811  -1.8348   2.0291  -3.7052   0.00    0.0
2019/08/27 16:04:06.000   36.103638769  140.086315754    68.9258   5  13   3.2309   3.3638  10.5810  -1.8353   2.0307  -3.7050   0.00    0.0
2019/08/27 16:04:07.000   36.103645383  140.086313017    68.0144   5  13   3.2308   3.3640  10.5809  -1.8358   2.0323  -3.7047   0.00    0.0
2019/08/27 16:04:08.000   36.103639071  140.086320692    72.1618   5  13   3.2307   3.3642  10.5808  -1.8363   2.0339  -3.7044   0.00    0.0
2019/08/27 16:04:09.000   36.103637385  140.086315503    68.2178   5  13   3.2306   3.3643  10.5807  -1.8369   2.0355  -3.7042   0.00    0.0
2019/08/27 16:04:10.000   36.103633822  140.086323452    70.3373   5  13   3.2306   3.3645  10.5806  -1.8374   2.0371  -3.7039   0.00    0.0
2019/08/27 16:04:11.000   36.103633414  140.086320646    69.9112   5  13   3.2305   3.3647  10.5805  -1.8379   2.0386  -3.7036   0.00    0.0
2019/08/27 16:04:12.000   36.103636370  140.086316413    70.9365   5  13   3.2304   3.3648  10.5804  -1.8384   2.0402  -3.7034   0.00    0.0
2019/08/27 16:04:13.000   36.103638470  140.086325509    69.1134   5  13   3.2303   3.3650  10.5802  -1.8389   2.0418  -3.7031   0.00    0.0
2019/08/27 16:04:14.000   36.103636387  140.086325301    71.6946   5  13   3.2303   3.3652  10.5801  -1.8394   2.0434  -3.7028   0.00    0.0
2019/08/27 16:04:15.000   36.103640048  140.086317464    68.9437   5  13   3.2302   3.3654  10.5800  -1.8399   2.0450  -3.7026   0.00    0.0
2019/08/27 16:04:16.000   36.103639271  140.086315881    69.1231   5  13   3.2301   3.3655  10.5799  -1.8404   2.0466  -3.7023   0.00    0.0
2019/08/27 16:04:17.000   36.103635984  140.086315525    70.1614   5  13   3.2300   3.3657  10.5798  -1.8409   2.0482  -3.7020   0.00    0.0
2019/08/27 16:04:18.000   36.103630720  140.086320443    71.7131   5  13   3.2300   3.3659  10.5797  -1.8414   2.0498  -3.7018   0.00    0.0
2019/08/27 16:04:19.000   36.103637093  140.086320419    69.1091   5  13   3.2299   3.3660  10.5796  -1.8419   2.0514  -3.7015   0.00    0.0
2019/08/27 16:04:20.000   36.103639531  140.086324472    69.0201   5  13   3.2298   3.3662  10.5794  -1.8424   2.0529  -3.7013   0.00    0.0
2019/08/27 16:04:21.000   36.103638115  140.086320415    72.1843   5  13   3.2297   3.3664  10.5793  -1.8429   2.0545  -3.7010   0.00    0.0
2019/08/27 16:04:22.000   36.103637996  140.086322375    69.7211   5  13   3.2297   3.3666  10.5792  -1.8434   2.0561  -3.7007   0.00    0.0
2019/08/27 16:04:23.000   36.103641348  140.086316149    71.6537   5  13   3.2296   3.3667  10.5791  -1.8439   2.0577  -3.7005   0.00    0.0
2019/08/27 16:04:24.000   36.103637018  140.086327677    69.9805   5  13   3.2295   3.3669  10.5790  -1.8444   2.0593  -3.7002   0.00    0.0
2019/08/27 16:04:25.000   36.103638297  140.086321956    70.1991   5  13   3.2294   3.3671  10.5789  -1.8449   2.0608  -3.7000   0.00    0.0
2019/08/27 16:04:26.000   36.103641387  140.086321854    71.2709   5  13   3.2294   3.3672  10.5787  -1.8454   2.0624  -3.6997   0.00    0.0
2019/08/27 16:04:27.000   36.103643004  140.086326440    70.1703   5  13   3.2293   3.3674  10.5786  -1.8459   2.0640  -3.6994   0.00    0.0
2019/08/27 16:04:28.000   36.103636498  140.086321220    70.2275   5  13   3.2292   3.3676  10.5785  -1.8464   2.0656  -3.6992   0.00    0.0
2019/08/27 16:04:29.000   36.103641785  140.086319992    68.3829   5  13   3.2292   3.3678  10.5784  -1.8469   2.0671  -3.6989   0.00    0.0
2019/08/27 16:04:30.000   36.103634709  140.086325483    70.1387   5  13   3.2291   3.3679  10.5783  -1.8475   2.0687  -3.6987   0.00    0.0
2019/08/27 16:04:31.000   36.103638446  140.086325079    70.7646   5  13   3.2290   3.3681  10.5781  -1.8480   2.0703  -3.6984   0.00    0.0
2019/08/27 16:04:32.000   36.103641621  140.086317469    71.6735   5  13   3.2289   3.3683  10.5780  -1.8485   2.0719  -3.6982   0.00    0.0
2019/08/27 16:04:33.000   36.103635610  140.086321113    69.0664   5  13   3.2289   3.3685  10.5779  -1.8490   2.0734  -3.6979   0.00    0.0
2019/08/27 16:04:34.000   36.103637480  140.086320174    71.2481   5  13   3.2288   3.3686  10.5778  -1.8495   2.0750  -3.6976   0.00    0.0
2019/08/27 16:04:35.000   36.103636923  140.086322759    67.8446   5  13   3.2287   3.3688  10.5777  -1.8500   2.0766  -3.6974   0.00    0.0
2019/08/27 16:04:36.000   36.103636367  140.086321406    70.4553   5  13   3.2286   3.3690  10.5775  -1.8505   2.0781  -3.6971   0.00    0.0
2019/08/27 16:04:37.000   36.103633140  140.086325881    69.4157   5  13   3.2286   3.3692  10.5774  -1.8510   2.0797  -3.6969   0.00    0.0
2019/08/27 16:04:38.000   36.103639523  140.086323459    71.4724   5  13   3.2285   3.3693  10.5773  -1.8515   2.0813  -3.6966   0.00    0.0
2019/08/27 16:04:39.000   36.103631931  140.086318430    68.3630   5  13   3.2284   3.3695  10.5772  -1.8520   2.0828  -3.6964   0.00    0.0
2019/08/27 16:04:40.000   36.103639018  140.086317965    67.6254   5  13   3.2284   3.3697  10.5770  -1.8525   2.0844  -3.6961   0.00    0.0
2019/08/27 16:04:41.000   36.103636572  140.086317425    69.0485   5  13   3.2283   3.3699  10.5769  -1.8530   2.0859  -3.6958   0.00    0.0
2019/08/27 16:04:42.000   36.103630751  140.086321749    70.3435   5  13   3.2282   3.3700  10.5768  -1.8535   2.0875  -3.6956   0.00    0.0
2019/08/27 16:04:43.000   36.103638213  140.086322065    68.9005   5  13   3.2281   3.3702  10.5766  -1.8540   2.0891  -3.6953   0.00    0.0
2019/08/27 16:04:44.000   36.103637198  140.086315857    70.1943   5  13   3.2281   3.3704  10.5765  -1.8545   2.0906  -3.6951   0.00    0.0
2019/08/27 16:04:45.000   36.103640214  140.086318738    69.5893   5  13   3.2280   3.3706  10.5764  -1.8550   2.0922  -3.6948   0.00    0.0
2019/08/27 16:04:46.000   36.103638332  140.086320548    69.7501   5  13   3.2279   3.3707  10.5763  -1.8555   2.0937  -3.6946   0.00    0.0
2019/08/27 16:04:47.000   36.103643097  140.086318995    68.8263   5  13   3.2279   3.3709  10.5761  -1.8560   2.0953  -3.6943   0.00    0.0
2019/08/27 16:04:48.000   36.103634376  140.086321399    70.0225   5  13   3.2278   3.3711  10.5760  -1.8565   2.0968  -3.6941   0.00    0.0
2019/08/27 16:04:49.000   36.103634730  140.086325279    70.3423   5  13   3.2277   3.3713  10.5759  -1.8570   2.0984  -3.6938   0.00    0.0
2019/08/27 16:04:50.000   36.103629518  140.086322907    70.3175   5  13   3.2276   3.3714  10.5757  -1.8575   2.0999  -3.6936   0.00    0.0
2019/08/27 16:04:51.000   36.103634307  140.086322900    71.9028   5  13   3.2276   3.3716  10.5756  -1.8580   2.1015  -3.6933   0.00    0.0
2019/08/27 16:04:52.000   36.103633919  140.086325551    70.4472   5  13   3.2275   3.3718  10.5755  -1.8585   2.1030  -3.6931   0.00    0.0
2019/08/27 16:04:53.000   36.103642391  140.086322667    69.8502   5  13   3.2274   3.3720  10.5753  -1.8590   2.1046  -3.6928   0.00    0.0
2019/08/27 16:04:54.000   36.103634071  140.086321472    71.5062   5  13   3.2274   3.3721  10.5752  -1.8595   2.1061  -3.6926   0.00    0.0
2019/08/27 16:04:55.000   36.103634879  140.086328048    71.8992   5  13   3.2273   3.3723  10.5751  -1.8600   2.1077  -3.6923   0.00    0.0
2019/08/27 16:04:56.000   36.103633591  140.086320898    71.7789   5  13   3.2272   3.3725  10.5749  -1.8605   2.1092  -3.6921   0.00    0.0
2019/08/27 16:04:57.000   36.103632789  140.086321529    70.1841   5  13   3.2271   3.3727  10.5748  -1.8610   2.1108  -3.6918   0.00    0.0
2019/08/27 16:04:58.000   36.103638613  140.086320059    70.5292   5  13   3.2271   3.3729  10.5747  -1.8615   2.1123  -3.6916   0.00    0.0
2019/08/27 16:04:59.000   36.103639884  140.086322658    68.8263   5  13   3.2270   3.3730  10.5745  -1.8620   2.1139  -3.6913   0.00    0.0
2019/08/27 16:05:00.000   36.103641241  140.086319311    68.9433   5  13   3.2269   3.3732  10.5744  -1.8625   2.1154  -3.6911   0.00    0.0
2019/08/27 16:05:01.000   36.103635773  140.086320830    70.5674   5  13   3.2269   3.3734  10.5743  -1.8630   2.1169  -3.6908   0.00    0.0
2019/08/27 16:05:02.000   36.103639214  140.086323591    71.6481   5  13   3.2268   3.3736  10.5741  -1.8635   2.1185  -3.6906   0.00    0.0
2019/08/27 16:05:03.000   36.103633218  140.086325334    70.3562   5  13   3.2267   3.3738  10.5740  -1.8640   2.1200  -3.6903   0.00    0.0
2019/08/27 16:05:04.000   36.103635442  140.086321087    69.9885   5  13   3.2267   3.3739  10.5738  -1.8645   2.1216  -3.6901   0.00    0.0
2019/08/27 16:05:05.000   36.103628772  140.086317596    69.0680   5  13   3.2266   3.3741  10.5737  -1.8650   2.1231  -3.6899   0.00    0.0
2019/08/27 16:05:06.000   36.103639250  140.086315393    68.0781   5  13   3.2265   3.3743  10.5736  -1.8655   2.1246  -3.6896   0.00    0.0
2019/08/27 16:05:07.000   36.103638756  140.086319318    67.3397   5  13   3.2265   3.3745  10.5734  -1.8659   2.1262  -3.6894   0.00    0.0
2019/08/27 16:05:08.000   36.103636845  140.086316008    71.1530   5  13   3.2264   3.3746  10.5733  -1.8664   2.1277  -3.6891   0.00    0.0
2019/08/27 16:05:09.000   36.103631276  140.086326927    67.1660   5  13   3.2263   3.3748  10.5731  -1.8669   2.1292  -3.6889   0.00    0.0
2019/08/27 16:05:10.000   36.103638480  140.086323181    69.8025   5  13   3.2263   3.3750  10.5730  -1.8674   2.1308  -3.6886   0.00    0.0
2019/08/27 16:05:11.000   36.103635396  140.086323456    68.1040   5  13   3.2262   3.3752  10.5729  -1.8679   2.1323  -3.6884   0.00    0.0
2019/08/27 16:05:12.000   36.103630552  140.086326963    71.8804   5  13   3.2261   3.3754  10.5727  -1.8684   2.1338  -3.6881   0.00    0.0
2019/08/27 16:05:13.000   36.103637135  140.086324789    69.3029   5  13   3.2261   3.3755  10.5726  -1.8689   2.1354  -3.6879   0.00    0.0
2019/08/27 16:05:14.000   36.103632432  140.086323705    71.3883   5  13   3.2260   3.3757  10.5724  -1.8694   2.1369  -3.6877   0.00    0.0
2019/08/27 16:05:15.000   36.103630535  140.086323801    71.8146   5  13   3.2259   3.3759  10.5723  -1.8699   2.1384  -3.6874   0.00    0.0
2019/08/27 16:05:16.000   36.103630165  140.086324339    72.4208   5  13   3.2258   3.3761  10.5721  -1.8704   2.1399  -3.6872   0.00    0.0
2019/08/27 16:05:17.000   36.103637965  140.086324345    71.3114   5  13   3.2258   3.3763  10.5720  -1.8709   2.1415  -3.6869   0.00    0.0
2019/08/27 16:05:18.000   36.103638387  140.086319177    72.2549   5  13   3.2257   3.3764  10.5719  -1.8714   2.1430  -3.6867   0.00    0.0
2019/08/27 16:05:19.000   36.103636986  140.086322364    71.0933   5  13   3.2256   3.3766  10.5717  -1.8719   2.1445  -3.6865   0.00    0.0
2019/08/27 16:05:20.000   36.103635959  140.086318672    70.6103   5  13   3.2256   3.3768  10.5716  -1.8724   2.1460  -3.6862   0.00    0.0
2019/08/27 16:05:21.000   36.103640516  140.086322670    69.8757   5  13   3.2255   3.3770  10.5714  -1.8729   2.1476  -3.6860   0.00    0.0
2019/08/27 16:05:22.000   36.103630783  140.086321520    71.2922   5  13   3.2254   3.3772  10.5713  -1.8734   2.1491  -3.6857   0.00    0.0
2019/08/27 16:05:23.000   36.103639640  140.086322665    69.8509   5  13   3.2254   3.3774  10.5711  -1.8739   2.1506  -3.6855   0.00    0.0
2019/08/27 16:05:24.000   36.103638595  140.086325122    71.1807   5  13   3.2253   3.3775  10.5710  -1.8744   2.1521  -3.6853   0.00    0.0
2019/08/27 16:05:25.000   36.103634541  140.086324425    69.9054   5  13   3.2252   3.3777  10.5708  -1.8749   2.1536  -3.6850   0.00    0.0
2019/08/27 16:05:26.000   36.103635927  140.086318477    68.0331   5  13   3.2252   3.3779  10.5707  -1.8754   2.1551  -3.6848   0.00    0.0
2019/08/27 16:05:27.000   36.103636051  140.086316969    68.2108   5  13   3.2251   3.3781  10.5705  -1.8759   2.1567  -3.6845   0.00    0.0
2019/08/27 16:05:28.000   36.103637605  140.086311737    70.4966   5  13   3.2250   3.3783  10.5704  -1.8764   2.1582  -3.6843   0.00    0.0
2019/08/27 16:05:29.000   36.103636734  140.086315621    68.9789   5  13   3.2250   3.3784  10.5702  -1.8768   2.1597  -3.6841   0.00    0.0
2019/08/27 16:05:30.000   36.103634662  140.086315734    71.3929   5  13   3.2249   3.3786  10.5701  -1.8773   2.1612  -3.6838   0.00    0.0
2019/08/27 16:05:31.000   36.103637613  140.086313266    70.6293   5  13   3.2249   3.3788  10.5699  -1.8778   2.1627  -3.6836   0.00    0.0
2019/08/27 16:05:32.000   36.103636793  140.086315777    68.4759   5  13   3.2248   3.3790  10.5698  -1.8783   2.1642  -3.6834   0.00    0.0
2019/08/27 16:05:33.000   36.103637136  140.086316588    70.3672   5  13   3.2247   3.3792  10.5696  -1.8788   2.1657  -3.6831   0.00    0.0
2019/08/27 16:05:34.000   36.103633637  140.086319905    72.2818   5  13   3.2247   3.3794  10.5695  -1.8793   2.1672  -3.6829   0.00    0.0
2019/08/27 16:05:35.000   36.103633428  140.086317704    70.0754   5  13   3.2246   3.3795  10.5693  -1.8798   2.1687  -3.6827   0.00    0.0
2019/08/27 16:05:36.000   36.103634304  140.086318264    70.9792   5  13   3.2245   3.3797  10.5691  -1.8803   2.1702  -3.6824   0.00    0.0
2019/08/27 16:05:37.000   36.103636674  140.086320167    71.7482   5  13   3.2245   3.3799  10.5690  -1.8808   2.1718  -3.6822   0.00    0.0
2019/08/27 16:05:38.000   36.103639244  140.086310780    70.1286   5  13   3.2244   3.3801  10.5688  -1.8813   2.1733  -3.6820   0.00    0.0
2019/08/27 16:05:39.000   36.103637672  140.086321624    70.0165   5  13   3.2243   3.3803  10.5687  -1.8818   2.1748  -3.6817   0.00    0.0
2019/08/27 16:05:40.000   36.103634644  140.086320849    72.3285   5  13   3.2243   3.3805  10.5685  -1.8823   2.1763  -3.6815   0.00    0.0
2019/08/27 16:05:41.000   36.103634412  140.086323520    71.1722   5  13   3.2242   3.3807  10.5684  -1.8828   2.1778  -3.6813   0.00    0.0
2019/08/27 16:05:42.000   36.103634464  140.086320428    72.9941   5  13   3.2241   3.3808  10.5682  -1.8833   2.1793  -3.6810   0.00    0.0
2019/08/27 16:05:43.000   36.103638939  140.086324060    69.5862   5  13   3.2241   3.3810  10.5680  -1.8837   2.1808  -3.6808   0.00    0.0
2019/08/27 16:05:44.000   36.103636085  140.086319374    73.0717   5  13   3.2240   3.3812  10.5679  -1.8842   2.1823  -3.6806   0.00    0.0
2019/08/27 16:05:45.000   36.103636903  140.086319757    69.9912   5  13   3.2239   3.3814  10.5677  -1.8847   2.1838  -3.6803   0.00    0.0
2019/08/27 16:05:46.000   36.103635903  140.086322321    68.7539   5  13   3.2239   3.3816  10.5676  -1.8852   2.1853  -3.6801   0.00    0.0
2019/08/27 16:05:47.000   36.103632874  140.086328474    71.4055   5  13   3.2238   3.3818  10.5674  -1.8857   2.1868  -3.6799   0.00    0.0
2019/08/27 16:05:48.000   36.103633476  140.086324919    70.3847   5  13   3.2238   3.3820  10.5672  -1.8862   2.1882  -3.6796   0.00    0.0
2019/08/27 16:05:49.000   36.103634749  140.086315175    70.9532   5  13   3.2237   3.3821  10.5671  -1.8867   2.1897  -3.6794   0.00    0.0
2019/08/27 16:05:50.000   36.103640229  140.086327677    70.5744   5  13   3.2236   3.3823  10.5669  -1.8872   2.1912  -3.6792   0.00    0.0
2019/08/27 16:05:51.000   36.103629090  140.086317129    71.1824   5  13   3.2236   3.3825  10.5668  -1.8877   2.1927  -3.6789   0.00    0.0
2019/08/27 16:05:52.000   36.103638226  140.086314125    68.2834   5  13   3.2235   3.3827  10.5666  -1.8882   2.1942  -3.6787   0.00    0.0
2019/08/27 16:05:53.000   36.103639059  140.086321322    71.1028   5  13   3.2234   3.3829  10.5664  -1.8887   2.1957  -3.6785   0.00    0.0
2019/08/27 16:05:54.000   36.103632091  140.086323038    72.3708   5  13   3.2234   3.3831  10.5663  -1.8891   2.1972  -3.6783   0.00    0.0
2019/08/27 16:05:55.000   36.103636305  140.086327932    71.8911   5  13   3.2233   3.3833  10.5661  -1.8896   2.1987  -3.6780   0.00    0.0
2019/08/27 16:05:56.000   36.103633494  140.086323108    71.5516   5  13   3.2233   3.3834  10.5659  -1.8901   2.2002  -3.6778   0.00    0.0
2019/08/27 16:05:57.000   36.103630141  140.086323121    69.7744   5  13   3.2232   3.3836  10.5658  -1.8906   2.2017  -3.6776   0.00    0.0
2019/08/27 16:05:58.000   36.103630391  140.086326680    71.1399   5  13   3.2231   3.3838  10.5656  -1.8911   2.2031  -3.6774   0.00    0.0
2019/08/27 16:05:59.000   36.103633041  140.086329771    71.6743   5  13   3.2231   3.3840  10.5654  -1.8916   2.2046  -3.6771   0.00    0.0
2019/08/27 16:06:00.000   36.103631203  140.086319111    70.7686   5  13   3.2230   3.3842  10.5653  -1.8921   2.2061  -3.6769   0.00    0.0
2019/08/27 16:06:01.000   36.103637407  140.086317064    69.9601   5  13   3.2229   3.3844  10.5651  -1.8926   2.2076  -3.6767   0.00    0.0
2019/08/27 16:06:02.000   36.103632573  140.086319694    71.7633   5  13   3.2229   3.3846  10.5649  -1.8931   2.2091  -3.6765   0.00    0.0
2019/08/27 16:06:03.000   36.103634473  140.086317472    71.1219   5  13   3.2228   3.3848  10.5648  -1.8936   2.2106  -3.6762   0.00    0.0
2019/08/27 16:06:04.000   36.103641097  140.086317455    69.7485   5  13   3.2228   3.3849  10.5646  -1.8940   2.2121  -3.6760   0.00    0.0
2019/08/27 16:06:05.000   36.103632994  140.086321758    71.0706   5  13   3.2227   3.3851  10.5644  -1.8945   2.2135  -3.6758   0.00    0.0
2019/08/27 16:06:06.000   36.103635750  140.086315224    69.7856   5  13   3.2226   3.3853  10.5643  -1.8950   2.2150  -3.6756   0.00    0.0
2019/08/27 16:06:07.000   36.103639473  140.086314532    72.0084   5  13   3.2226   3.3855  10.5641  -1.8955   2.2165  -3.6753   0.00    0.0
2019/08/27 16:06:08.000   36.103635940  140.086311894    69.0198   5  13   3.2225   3.3857  10.5639  -1.8960   2.2180  -3.6751   0.00    0.0
2019/08/27 16:06:09.000   36.103636444  140.086324784    71.1282   5  13   3.2225   3.3859  10.5637  -1.8965   2.2194  -3.6749   0.00    0.0
2019/08/27 16:06:10.000   36.103634168  140.086315762    69.2725   5  13   3.2224   3.3861  10.5636  -1.8970   2.2209  -3.6747   0.00    0.0
2019/08/27 16:06:11.000   36.103639301  140.086320421    72.2066   5  13   3.2223   3.3863  10.5634  -1.8975   2.2224  -3.6744   0.00    0.0
2019/08/27 16:06:12.000   36.103637360  140.086312265    70.7849   5  13   3.2223   3.3865  10.5632  -1.8979   2.2239  -3.6742   0.00    0.0
2019/08/27 16:06:13.000   36.103635971  140.086319399    70.9376   5  13   3.2222   3.3866  10.5630  -1.8984   2.2253  -3.6740   0.00    0.0
2019/08/27 16:06:14.000   36.103634507  140.086323270    69.8504   5  13   3.2222   3.3868  10.5629  -1.8989   2.2268  -3.6738   0.00    0.0
2019/08/27 16:06:15.000   36.103635437  140.086319679    68.9474   5  13   3.2221   3.3870  10.5627  -1.8994   2.2283  -3.6736   0.00    0.0
2019/08/27 16:06:16.000   36.103635823  140.086317040    70.8724   5  13   3.2220   3.3872  10.5625  -1.8999   2.2297  -3.6733   0.00    0.0
2019/08/27 16:06:17.000   36.103631151  140.086321600    72.8943   5  13   3.2220   3.3874  10.5623  -1.9004   2.2312  -3.6731   0.00    0.0
2019/08/27 16:06:18.000   36.103637227  140.086319413    71.2744   5  13   3.2219   3.3876  10.5622  -1.9009   2.2327  -3.6729   0.00    0.0
2019/08/27 16:06:19.000   36.103637252  140.086321736    69.6153   5  13   3.2219   3.3878  10.5620  -1.9014   2.2342  -3.6727   0.00    0.0
2019/08/27 16:06:20.000   36.103636932  140.086314089    70.2719   5  13   3.2218   3.3880  10.5618  -1.9018   2.2356  -3.6725   0.00    0.0
2019/08/27 16:06:21.000   36.103637936  140.086316425    70.8674   5  13   3.2217   3.3882  10.5616  -1.9023   2.2371  -3.6723   0.00    0.0
2019/08/27 16:06:22.000   36.103634277  140.086317551    70.1576   5  13   3.2217   3.3884  10.5615  -1.9028   2.2386  -3.6720   0.00    0.0
2019/08/27 16:06:23.000   36.103638752  140.086313274    69.2747   5  13   3.2216   3.3885  10.5613  -1.9033   2.2400  -3.6718   0.00    0.0
2019/08/27 16:06:24.000   36.103632027  140.086313154    72.5697   5  13   3.2216   3.3887  10.5611  -1.9038   2.2415  -3.6716   0.00    0.0
2019/08/27 16:06:25.000   36.103634925  140.086312034    70.8943   5  13   3.2215   3.3889  10.5609  -1.9043   2.2429  -3.6714   0.00    0.0
2019/08/27 16:06:26.000   36.103632641  140.086315740    68.5753   5  13   3.2214   3.3891  10.5607  -1.9048   2.2444  -3.6712   0.00    0.0
2019/08/27 16:06:27.000   36.103634467  140.086321031    68.2504   5  13   3.2214   3.3893  10.5606  -1.9052   2.2459  -3.6710   0.00    0.0
2019/08/27 16:06:28.000   36.103636798  140.086316100    69.5864   5  13   3.2213   3.3895  10.5604  -1.9057   2.2473  -3.6707   0.00    0.0
2019/08/27 16:06:29.000   36.103638926  140.086315766    71.4020   5  13   3.2213   3.3897  10.5602  -1.9062   2.2488  -3.6705   0.00    0.0
2019/08/27 16:06:30.000   36.103635872  140.086317881    70.0607   5  13   3.2212   3.3899  10.5600  -1.9067   2.2502  -3.6703   0.00    0.0
2019/08/27 16:06:31.000   36.103632020  140.086321760    72.9006   5  13   3.2212   3.3901  10.5598  -1.9072   2.2517  -3.6701   0.00    0.0
2019/08/27 16:06:32.000   36.103633331  140.086321651    72.6608   5  13   3.2211   3.3903  10.5596  -1.9077   2.2531  -3.6699   0.00    0.0
2019/08/27 16:06:33.000   36.103638938  140.086325300    72.6321   5  13   3.2210   3.3905  10.5595  -1.9082   2.2546  -3.6697   0.00    0.0
2019/08/27 16:06:34.000   36.103637050  140.086321256    71.5604   5  13   3.2210   3.3907  10.5593  -1.9086   2.2561  -3.6695   0.00    0.0
2019/08/27 16:06:35.000   36.103641719  140.086317740    72.3250   5  13   3.2209   3.3909  10.5591  -1.9091   2.2575  -3.6692   0.00    0.0
2019/08/27 16:06:36.000   36.103632581  140.086319394    72.9348   5  13   3.2209   3.3910  10.5589  -1.9096   2.2590  -3.6690   0.00    0.0
2019/08/27 16:06:37.000   36.103638565  140.086318047    70.8599   5  13   3.2208   3.3912  10.5587  -1.9101   2.2604  -3.6688   0.00    0.0
2019/08/27 16:06:38.000   36.103635546  140.086327492    71.4041   5  13   3.2208   3.3914  10.5585  -1.9106   2.2619  -3.6686   0.00    0.0
2019/08/27 16:06:39.000   36.103638522  140.086314251    71.4505   5  13   3.2207   3.3916  10.5583  -1.9111   2.2633  -3.6684   0.00    0.0
2019/08/27 16:06:40.000   36.103632814  140.086315537    72.0957   5  13   3.2206   3.3918  10.5582  -1.9116   2.2648  -3.6682   0.00    0.0
2019/08/27 16:06:41.000   36.103638872  140.086317493    70.5227   5  13   3.2206   3.3920  10.5580  -1.9120   2.2662  -3.6680   0.00    0.0
2019/08/27 16:06:42.000   36.103634629  140.086320474    72.1587   5  13   3.2205   3.3922  10.5578  -1.9125   2.2677  -3.6678   0.00    0.0
2019/08/27 16:06:43.000   36.103636839  140.086312410    69.4890   5  13   3.2205   3.3924  10.5576  -1.9130   2.2691  -3.6676   0.00    0.0
2019/08/27 16:06:44.000   36.103635384  140.086325239    71.5854   5  13   3.2204   3.3926  10.5574  -1.9135   2.2706  -3.6673   0.00    0.0
2019/08/27 16:06:45.000   36.103639282  140.086322794    69.2007   5  13   3.2204   3.3928  10.5572  -1.9140   2.2720  -3.6671   0.00    0.0
2019/08/27 16:06:46.000   36.103636699  140.086328627    69.9408   5  13   3.2203   3.3930  10.5570  -1.9145   2.2734  -3.6669   0.00    0.0
2019/08/27 16:06:47.000   36.103632732  140.086322543    67.8308   5  13   3.2202   3.3932  10.5568  -1.9149   2.2749  -3.6667   0.00    0.0
2019/08/27 16:06:48.000   36.103631120  140.086322042    74.3910   5  13   3.2202   3.3934  10.5566  -1.9154   2.2763  -3.6665   0.00    0.0
2019/08/27 16:06:49.000   36.103634478  140.086328584    71.4814   5  13   3.2201   3.3936  10.5564  -1.9159   2.2778  -3.6663   0.00    0.0
2019/08/27 16:06:50.000   36.103638781  140.086327355    69.6731   5  13   3.2201   3.3938  10.5562  -1.9164   2.2792  -3.6661   0.00    0.0
2019/08/27 16:06:51.000   36.103636760  140.086319826    70.6872   5  13   3.2200   3.3940  10.5561  -1.9169   2.2807  -3.6659   0.00    0.0
2019/08/27 16:06:52.000   36.103632402  140.086318513    71.5435   5  13   3.2200   3.3942  10.5559  -1.9173   2.2821  -3.6657   0.00    0.0
2019/08/27 16:06:53.000   36.103633172  140.086321061    72.1923   5  13   3.2199   3.3944  10.5557  -1.9178   2.2835  -3.6655   0.00    0.0
2019/08/27 16:06:54.000   36.103632725  140.086322250    70.5564   5  13   3.2199   3.3946  10.5555  -1.9183   2.2850  -3.6653   0.00    0.0
2019/08/27 16:06:55.000   36.103637359  140.086319020    72.4341   5  13   3.2198   3.3947  10.5553  -1.9188   2.2864  -3.6651   0.00    0.0
2019/08/27 16:06:56.000   36.103637618  140.086321604    69.4948   5  13   3.2197   3.3949  10.5551  -1.9193   2.2878  -3.6649   0.00    0.0
2019/08/27 16:06:57.000   36.103634546  140.086318348    72.8963   5  13   3.2197   3.3951  10.5549  -1.9198   2.2893  -3.6647   0.00    0.0
2019/08/27 16:06:58.000   36.103631188  140.086323909    70.4563   5  13   3.2196   3.3953  10.5547  -1.9202   2.2907  -3.6645   0.00    0.0
2019/08/27 16:06:59.000   36.103632036  140.086318242    70.6440   5  13   3.2196   3.3955  10.5545  -1.9207   2.2921  -3.6643   0.00    0.0
2019/08/27 16:07:00.000   36.103631192  140.086315657    70.2059   5  13   3.2195   3.3957  10.5543  -1.9212   2.2936  -3.6641   0.00    0.0
2019/08/27 16:07:01.000   36.103632314  140.086319042    71.5832   5  13   3.2195   3.3959  10.5541  -1.9217   2.2950  -3.6639   0.00    0.0
