% program   : RTKLIB ver.2.4.2
% inp file  : ../../data/0627349AB.bnx
% inp file  : ../../data/sept_2019349.nav
% inp file  : ../../data/2019349B.l6
% obs start : 2019/12/15 00:00:04.0 UTC (week2084     22.0s)
% obs end   : 2019/12/15 02:00:03.0 UTC (week2084   7221.0s)
% pos mode  : ssr2osr
% solution  : forward
% elev mask : 15.0 deg
% dynamics  : off
% tidecorr  : on
% tropo opt : off
% ephemeris : broadcast+ssr apc
% navi sys  : gps galileo qzss
% antenna1  : TRM59800.80     NONE  ( 0.0000  0.0000  0.0000)
%
% (lat/lon/height=WGS84/ellipsoidal,Q=1:fix,2:float,3:sbas,4:dgps,5:single,6:ppp,ns=# of satellites)
%  UTC                   latitude(deg) longitude(deg)  height(m)   Q  ns   sdn(m)   sde(m)   sdu(m)  sdne(m)  sdeu(m)  sdun(m) age(s)  ratio
2019/12/15 00:00:04.000   36.103635191  140.086313749    70.7576   5  14   3.4002   2.8244   6.9235   1.5784  -1.8810  -3.4345   0.00    0.0
2019/12/15 00:00:05.000   36.103645852  140.086311092    68.1073   5  15   2.8054   2.4615   6.0772  -0.4125   1.0281  -2.3291   0.00    0.0
2019/12/15 00:00:06.000   36.103641273  140.086315621    69.1478   5  15   2.8055   2.4615   6.0770  -0.4135   1.0288  -2.3293   0.00    0.0
2019/12/15 00:00:07.000   36.103642596  140.086319688    68.6848   5  15   2.8055   2.4616   6.0768  -0.4144   1.0296  -2.3295   0.00    0.0
2019/12/15 00:00:08.000   36.103642984  140.086315551    68.9074   5  15   2.8056   2.4616   6.0766  -0.4153   1.0303  -2.3297   0.00    0.0
2019/12/15 00:00:09.000   36.103646558  140.086318338    68.8179   5  15   2.8056   2.4616   6.0764  -0.4163   1.0310  -2.3300   0.00    0.0
2019/12/15 00:00:10.000   36.103641861  140.086316416    67.9842   5  15   2.8057   2.4617   6.0762  -0.4172   1.0318  -2.3302   0.00    0.0
2019/12/15 00:00:11.000   36.103640658  140.086321212    69.2271   5  15   2.8058   2.4617   6.0760  -0.4181   1.0325  -2.3304   0.00    0.0
2019/12/15 00:00:12.000   36.103639602  140.086314832    70.0300   5  15   2.8058   2.4617   6.0759  -0.4190   1.0333  -2.3306   0.00    0.0
2019/12/15 00:00:13.000   36.103644848  140.086321239    68.6556   5  15   2.8059   2.4618   6.0757  -0.4199   1.0340  -2.3308   0.00    0.0
2019/12/15 00:00:14.000   36.103644102  140.086320518    69.1793   5  15   2.8060   2.4618   6.0755  -0.4209   1.0347  -2.3311   0.00    0.0
2019/12/15 00:00:15.000   36.103636537  140.086314665    69.8859   5  15   2.8060   2.4618   6.0753  -0.4218   1.0355  -2.3313   0.00    0.0
2019/12/15 00:00:16.000   36.103641860  140.086318624    68.3410   5  15   2.8061   2.4619   6.0751  -0.4227   1.0362  -2.3315   0.00    0.0
2019/12/15 00:00:17.000   36.103643894  140.086316516    69.7011   5  15   2.8062   2.4619   6.0749  -0.4236   1.0369  -2.3317   0.00    0.0
2019/12/15 00:00:18.000   36.103644010  140.086316097    68.8644   5  15   2.8062   2.4619   6.0747  -0.4245   1.0377  -2.3319   0.00    0.0
2019/12/15 00:00:19.000   36.103645286  140.086315193    68.7064   5  15   2.8063   2.4620   6.0746  -0.4254   1.0384  -2.3322   0.00    0.0
2019/12/15 00:00:20.000   36.103643483  140.086311800    69.0852   5  15   2.8063   2.4620   6.0744  -0.4263   1.0391  -2.3324   0.00    0.0
2019/12/15 00:00:21.000   36.103652155  140.086313526    66.8372   5  15   2.8064   2.4620   6.0742  -0.4272   1.0399  -2.3326   0.00    0.0
2019/12/15 00:00:22.000   36.103641511  140.086314448    67.9723   5  15   2.8065   2.4620   6.0740  -0.4281   1.0406  -2.3328   0.00    0.0
2019/12/15 00:00:23.000   36.103640523  140.086315891    68.5530   5  15   2.8065   2.4621   6.0738  -0.4290   1.0413  -2.3330   0.00    0.0
2019/12/15 00:00:24.000   36.103638919  140.086312092    69.3786   5  15   2.8066   2.4621   6.0736  -0.4299   1.0421  -2.3333   0.00    0.0
2019/12/15 00:00:25.000   36.103634682  140.086315049    69.4781   5  15   2.8067   2.4621   6.0734  -0.4308   1.0428  -2.3335   0.00    0.0
2019/12/15 00:00:26.000   36.103634488  140.086316810    70.4536   5  15   2.8067   2.4622   6.0732  -0.4317   1.0435  -2.3337   0.00    0.0
2019/12/15 00:00:27.000   36.103635599  140.086312544    69.8054   5  15   2.8068   2.4622   6.0731  -0.4326   1.0443  -2.3339   0.00    0.0
2019/12/15 00:00:28.000   36.103641249  140.086317860    69.0771   5  15   2.8068   2.4622   6.0729  -0.4335   1.0450  -2.3341   0.00    0.0
2019/12/15 00:00:29.000   36.103635183  140.086322703    69.8429   5  15   2.8069   2.4623   6.0727  -0.4344   1.0457  -2.3344   0.00    0.0
2019/12/15 00:00:30.000   36.103643303  140.086321288    67.5553   5  15   2.8070   2.4623   6.0725  -0.4353   1.0465  -2.3346   0.00    0.0
2019/12/15 00:00:31.000   36.103639319  140.086319827    69.0080   5  15   2.8070   2.4623   6.0723  -0.4362   1.0472  -2.3348   0.00    0.0
2019/12/15 00:00:32.000   36.103642399  140.086314262    68.8358   5  15   2.8071   2.4624   6.0721  -0.4371   1.0479  -2.3350   0.00    0.0
2019/12/15 00:00:33.000   36.103640604  140.086315226    69.0964   5  15   2.8072   2.4624   6.0719  -0.4379   1.0486  -2.3352   0.00    0.0
2019/12/15 00:00:34.000   36.103640801  140.086315101    68.7955   5  15   2.8072   2.4624   6.0717  -0.4388   1.0494  -2.3355   0.00    0.0
2019/12/15 00:00:35.000   36.103637908  140.086308237    68.4883   5  15   2.8073   2.4625   6.0715  -0.4397   1.0501  -2.3357   0.00    0.0
2019/12/15 00:00:36.000   36.103641092  140.086314325    67.1620   5  15   2.8074   2.4625   6.0714  -0.4406   1.0508  -2.3359   0.00    0.0
2019/12/15 00:00:37.000   36.103637483  140.086309342    68.6733   5  15   2.8074   2.4625   6.0712  -0.4415   1.0515  -2.3361   0.00    0.0
2019/12/15 00:00:38.000   36.103643776  140.086306619    67.7164   5  15   2.8075   2.4626   6.0710  -0.4423   1.0523  -2.3363   0.00    0.0
2019/12/15 00:00:39.000   36.103635801  140.086309864    68.6065   5  15   2.8076   2.4626   6.0708  -0.4432   1.0530  -2.3365   0.00    0.0
2019/12/15 00:00:40.000   36.103643718  140.086308785    69.0950   5  15   2.8076   2.4626   6.0706  -0.4441   1.0537  -2.3368   0.00    0.0
2019/12/15 00:00:41.000   36.103636163  140.086308317    68.2246   5  15   2.8077   2.4627   6.0704  -0.4450   1.0544  -2.3370   0.00    0.0
2019/12/15 00:00:42.000   36.103637612  140.086308443    68.1828   5  15   2.8077   2.4627   6.0702  -0.4458   1.0552  -2.3372   0.00    0.0
2019/12/15 00:00:43.000   36.103638395  140.086312772    68.3762   5  15   2.8078   2.4627   6.0700  -0.4467   1.0559  -2.3374   0.00    0.0
2019/12/15 00:00:44.000   36.103642115  140.086313108    67.3721   5  15   2.8079   2.4628   6.0698  -0.4476   1.0566  -2.3376   0.00    0.0
2019/12/15 00:00:45.000   36.103643648  140.086321882    68.4243   5  15   2.8079   2.4628   6.0696  -0.4484   1.0573  -2.3379   0.00    0.0
2019/12/15 00:00:46.000   36.103639759  140.086319378    69.0600   5  15   2.8080   2.4628   6.0695  -0.4493   1.0580  -2.3381   0.00    0.0
2019/12/15 00:00:47.000   36.103640730  140.086314877    68.3697   5  15   2.8081   2.4629   6.0693  -0.4502   1.0588  -2.3383   0.00    0.0
2019/12/15 00:00:48.000   36.103638662  140.086316076    68.0197   5  15   2.8081   2.4629   6.0691  -0.4510   1.0595  -2.3385   0.00    0.0
2019/12/15 00:00:49.000   36.103641941  140.086314137    67.5798   5  15   2.8082   2.4629   6.0689  -0.4519   1.0602  -2.3387   0.00    0.0
2019/12/15 00:00:50.000   36.103641113  140.086318968    68.3274   5  15   2.8083   2.4630   6.0687  -0.4527   1.0609  -2.3389   0.00    0.0
2019/12/15 00:00:51.000   36.103644916  140.086319442    66.6238   5  15   2.8083   2.4630   6.0685  -0.4536   1.0616  -2.3392   0.00    0.0
2019/12/15 00:00:52.000   36.103643186  140.086321244    68.6559   5  15   2.8084   2.4630   6.0683  -0.4544   1.0623  -2.3394   0.00    0.0
2019/12/15 00:00:53.000   36.103642096  140.086319872    68.4418   5  15   2.8084   2.4631   6.0681  -0.4553   1.0631  -2.3396   0.00    0.0
2019/12/15 00:00:54.000   36.103639601  140.086321092    68.2914   5  15   2.8085   2.4631   6.0679  -0.4562   1.0638  -2.3398   0.00    0.0
2019/12/15 00:00:55.000   36.103646250  140.086324001    67.6828   5  15   2.8086   2.4631   6.0677  -0.4570   1.0645  -2.3400   0.00    0.0
2019/12/15 00:00:56.000   36.103639861  140.086318688    68.6905   5  15   2.8086   2.4632   6.0675  -0.4579   1.0652  -2.3402   0.00    0.0
2019/12/15 00:00:57.000   36.103640807  140.086316092    67.8514   5  15   2.8087   2.4632   6.0673  -0.4587   1.0659  -2.3405   0.00    0.0
2019/12/15 00:00:58.000   36.103639248  140.086318236    67.2922   5  15   2.8088   2.4632   6.0671  -0.4595   1.0666  -2.3407   0.00    0.0
2019/12/15 00:00:59.000   36.103637139  140.086318096    67.7219   5  15   2.8088   2.4633   6.0670  -0.4604   1.0673  -2.3409   0.00    0.0
2019/12/15 00:01:00.000   36.103635876  140.086327541    68.7505   5  15   2.8089   2.4633   6.0668  -0.4612   1.0680  -2.3411   0.00    0.0
2019/12/15 00:01:01.000   36.103645436  140.086315745    67.9345   5  15   2.8090   2.4633   6.0666  -0.4621   1.0688  -2.3413   0.00    0.0
2019/12/15 00:01:02.000   36.103640868  140.086319780    69.0354   5  15   2.8090   2.4634   6.0664  -0.4629   1.0695  -2.3415   0.00    0.0
2019/12/15 00:01:03.000   36.103637840  140.086320357    68.5595   5  15   2.8091   2.4634   6.0662  -0.4638   1.0702  -2.3418   0.00    0.0
2019/12/15 00:01:04.000   36.103642594  140.086319555    67.5687   5  15   2.8092   2.4634   6.0660  -0.4646   1.0709  -2.3420   0.00    0.0
2019/12/15 00:01:05.000   36.103641449  140.086325658    67.6873   5  15   2.8092   2.4635   6.0658  -0.4654   1.0716  -2.3422   0.00    0.0
2019/12/15 00:01:06.000   36.103640856  140.086317210    67.8460   5  15   2.8093   2.4635   6.0656  -0.4663   1.0723  -2.3424   0.00    0.0
2019/12/15 00:01:07.000   36.103639665  140.086321471    67.9404   5  15   2.8094   2.4635   6.0654  -0.4671   1.0730  -2.3426   0.00    0.0
2019/12/15 00:01:08.000   36.103631044  140.086322931    68.3781   5  15   2.8094   2.4636   6.0652  -0.4679   1.0737  -2.3428   0.00    0.0
2019/12/15 00:01:09.000   36.103637382  140.086319354    68.5020   5  15   2.8095   2.4636   6.0650  -0.4688   1.0744  -2.3431   0.00    0.0
2019/12/15 00:01:10.000   36.103637048  140.086320003    67.6535   5  15   2.8095   2.4636   6.0648  -0.4696   1.0751  -2.3433   0.00    0.0
2019/12/15 00:01:11.000   36.103638926  140.086314142    66.8481   5  15   2.8096   2.4637   6.0646  -0.4704   1.0758  -2.3435   0.00    0.0
2019/12/15 00:01:12.000   36.103637809  140.086319098    67.6480   5  15   2.8097   2.4637   6.0644  -0.4713   1.0765  -2.3437   0.00    0.0
2019/12/15 00:01:13.000   36.103636045  140.086316570    67.7547   5  15   2.8097   2.4637   6.0642  -0.4721   1.0772  -2.3439   0.00    0.0
2019/12/15 00:01:14.000   36.103636117  140.086311921    67.7171   5  15   2.8098   2.4638   6.0640  -0.4729   1.0779  -2.3441   0.00    0.0
2019/12/15 00:01:15.000   36.103637369  140.086317480    67.6009   5  15   2.8099   2.4638   6.0638  -0.4737   1.0786  -2.3443   0.00    0.0
2019/12/15 00:01:16.000   36.103638874  140.086314073    68.2376   5  15   2.8099   2.4638   6.0637  -0.4746   1.0794  -2.3446   0.00    0.0
2019/12/15 00:01:17.000   36.103637363  140.086317012    68.1626   5  15   2.8100   2.4639   6.0635  -0.4754   1.0801  -2.3448   0.00    0.0
2019/12/15 00:01:18.000   36.103633582  140.086318620    68.9651   5  15   2.8101   2.4639   6.0633  -0.4762   1.0808  -2.3450   0.00    0.0
2019/12/15 00:01:19.000   36.103638830  140.086321429    68.5217   5  15   2.8101   2.4639   6.0631  -0.4770   1.0815  -2.3452   0.00    0.0
2019/12/15 00:01:20.000   36.103632519  140.086321010    68.5334   5  15   2.8102   2.4640   6.0629  -0.4778   1.0822  -2.3454   0.00    0.0
2019/12/15 00:01:21.000   36.103634643  140.086318919    70.1325   5  15   2.8103   2.4640   6.0627  -0.4786   1.0829  -2.3456   0.00    0.0
2019/12/15 00:01:22.000   36.103641037  140.086327128    68.5646   5  15   2.8103   2.4640   6.0625  -0.4795   1.0836  -2.3458   0.00    0.0
2019/12/15 00:01:23.000   36.103635910  140.086322767    68.9333   5  15   2.8104   2.4641   6.0623  -0.4803   1.0843  -2.3461   0.00    0.0
2019/12/15 00:01:24.000   36.103630773  140.086320765    70.3243   5  15   2.8105   2.4641   6.0621  -0.4811   1.0850  -2.3463   0.00    0.0
2019/12/15 00:01:25.000   36.103633107  140.086322966    69.0339   5  15   2.8105   2.4642   6.0619  -0.4819   1.0856  -2.3465   0.00    0.0
2019/12/15 00:01:26.000   36.103632252  140.086318583    68.7631   5  15   2.8106   2.4642   6.0617  -0.4827   1.0863  -2.3467   0.00    0.0
2019/12/15 00:01:27.000   36.103637323  140.086317348    69.4101   5  15   2.8106   2.4642   6.0615  -0.4835   1.0870  -2.3469   0.00    0.0
2019/12/15 00:01:28.000   36.103634254  140.086318675    68.5123   5  15   2.8107   2.4643   6.0613  -0.4843   1.0877  -2.3471   0.00    0.0
2019/12/15 00:01:29.000   36.103631866  140.086312929    68.2270   5  15   2.8108   2.4643   6.0611  -0.4851   1.0884  -2.3473   0.00    0.0
2019/12/15 00:01:30.000   36.103631002  140.086317878    69.0850   5  15   2.8108   2.4643   6.0609  -0.4859   1.0891  -2.3475   0.00    0.0
2019/12/15 00:01:31.000   36.103631200  140.086319742    69.2790   5  15   2.8109   2.4644   6.0607  -0.4867   1.0898  -2.3478   0.00    0.0
2019/12/15 00:01:32.000   36.103638658  140.086319778    68.3664   5  15   2.8110   2.4644   6.0605  -0.4876   1.0905  -2.3480   0.00    0.0
2019/12/15 00:01:33.000   36.103636804  140.086313198    67.0372   5  15   2.8110   2.4644   6.0603  -0.4884   1.0912  -2.3482   0.00    0.0
2019/12/15 00:01:34.000   36.103629987  140.086309734    67.9942   5  15   2.8111   2.4645   6.0601  -0.4892   1.0919  -2.3484   0.00    0.0
2019/12/15 00:01:35.000   36.103631460  140.086308360    68.0853   5  15   2.8112   2.4645   6.0599  -0.4900   1.0926  -2.3486   0.00    0.0
2019/12/15 00:01:36.000   36.103636913  140.086313008    67.8243   5  15   2.8112   2.4645   6.0597  -0.4908   1.0933  -2.3488   0.00    0.0
2019/12/15 00:01:37.000   36.103633514  140.086320732    69.3786   5  15   2.8113   2.4646   6.0595  -0.4915   1.0940  -2.3490   0.00    0.0
2019/12/15 00:01:38.000   36.103634559  140.086314918    68.1171   5  15   2.8114   2.4646   6.0593  -0.4923   1.0947  -2.3492   0.00    0.0
2019/12/15 00:01:39.000   36.103636273  140.086322664    68.4541   5  15   2.8114   2.4647   6.0591  -0.4931   1.0954  -2.3495   0.00    0.0
2019/12/15 00:01:40.000   36.103638730  140.086317313    68.4491   5  15   2.8115   2.4647   6.0589  -0.4939   1.0961  -2.3497   0.00    0.0
2019/12/15 00:01:41.000   36.103633125  140.086312873    68.4443   5  15   2.8116   2.4647   6.0587  -0.4947   1.0967  -2.3499   0.00    0.0
2019/12/15 00:01:42.000   36.103634002  140.086316933    68.6308   5  15   2.8116   2.4648   6.0585  -0.4955   1.0974  -2.3501   0.00    0.0
2019/12/15 00:01:43.000   36.103633760  140.086316879    68.8871   5  15   2.8117   2.4648   6.0583  -0.4963   1.0981  -2.3503   0.00    0.0
2019/12/15 00:01:44.000   36.103634483  140.086306821    69.8282   5  15   2.8118   2.4648   6.0581  -0.4971   1.0988  -2.3505   0.00    0.0
2019/12/15 00:01:45.000   36.103635841  140.086313369    69.0402   5  15   2.8118   2.4649   6.0579  -0.4979   1.0995  -2.3507   0.00    0.0
2019/12/15 00:01:46.000   36.103640206  140.086310738    68.8362   5  15   2.8119   2.4649   6.0577  -0.4987   1.1002  -2.3509   0.00    0.0
2019/12/15 00:01:47.000   36.103633529  140.086309282    69.1086   5  15   2.8120   2.4649   6.0575  -0.4995   1.1009  -2.3511   0.00    0.0
2019/12/15 00:01:48.000   36.103634565  140.086310800    68.8718   5  15   2.8120   2.4650   6.0573  -0.5002   1.1016  -2.3514   0.00    0.0
2019/12/15 00:01:49.000   36.103635565  140.086313585    69.1592   5  15   2.8121   2.4650   6.0571  -0.5010   1.1022  -2.3516   0.00    0.0
2019/12/15 00:01:50.000   36.103634882  140.086316662    70.0817   5  15   2.8122   2.4651   6.0569  -0.5018   1.1029  -2.3518   0.00    0.0
2019/12/15 00:01:51.000   36.103639229  140.086314260    69.2691   5  15   2.8122   2.4651   6.0567  -0.5026   1.1036  -2.3520   0.00    0.0
2019/12/15 00:01:52.000   36.103638980  140.086315948    68.8083   5  15   2.8123   2.4651   6.0565  -0.5034   1.1043  -2.3522   0.00    0.0
2019/12/15 00:01:53.000   36.103636362  140.086312740    70.3667   5  15   2.8124   2.4652   6.0563  -0.5042   1.1050  -2.3524   0.00    0.0
2019/12/15 00:01:54.000   36.103634911  140.086315659    70.6049   5  15   2.8124   2.4652   6.0561  -0.5049   1.1057  -2.3526   0.00    0.0
2019/12/15 00:01:55.000   36.103637815  140.086312613    69.8035   5  15   2.8125   2.4652   6.0559  -0.5057   1.1063  -2.3528   0.00    0.0
2019/12/15 00:01:56.000   36.103636180  140.086314222    70.6736   5  15   2.8125   2.4653   6.0557  -0.5065   1.1070  -2.3530   0.00    0.0
2019/12/15 00:01:57.000   36.103631282  140.086311779    71.1818   5  15   2.8126   2.4653   6.0555  -0.5073   1.1077  -2.3533   0.00    0.0
2019/12/15 00:01:58.000   36.103637065  140.086311776    71.3491   5  15   2.8127   2.4653   6.0553  -0.5080   1.1084  -2.3535   0.00    0.0
2019/12/15 00:01:59.000   36.103637234  140.086317041    69.7891   5  15   2.8127   2.4654   6.0551  -0.5088   1.1091  -2.3537   0.00    0.0
2019/12/15 00:02:00.000   36.103634361  140.086314169    70.0534   5  15   2.8128   2.4654   6.0549  -0.5096   1.1097  -2.3539   0.00    0.0
2019/12/15 00:02:01.000   36.103635461  140.086315142    68.7681   5  15   2.8129   2.4655   6.0547  -0.5104   1.1104  -2.3541   0.00    0.0
2019/12/15 00:02:02.000   36.103635363  140.086314432    69.3590   5  15   2.8129   2.4655   6.0545  -0.5111   1.1111  -2.3543   0.00    0.0
2019/12/15 00:02:03.000   36.103635833  140.086311160    69.2473   5  15   2.8130   2.4655   6.0543  -0.5119   1.1118  -2.3545   0.00    0.0
2019/12/15 00:02:04.000   36.103634038  140.086318861    69.2285   5  15   2.8131   2.4656   6.0541  -0.5127   1.1125  -2.3547   0.00    0.0
2019/12/15 00:02:05.000   36.103642021  140.086313008    68.8516   5  15   2.8131   2.4656   6.0539  -0.5134   1.1131  -2.3549   0.00    0.0
2019/12/15 00:02:06.000   36.103637554  140.086317330    69.2898   5  15   2.8132   2.4656   6.0537  -0.5142   1.1138  -2.3551   0.00    0.0
2019/12/15 00:02:07.000   36.103643913  140.086317197    68.4649   5  15   2.8133   2.4657   6.0535  -0.5150   1.1145  -2.3553   0.00    0.0
2019/12/15 00:02:08.000   36.103636775  140.086315061    68.2887   5  15   2.8133   2.4657   6.0533  -0.5157   1.1152  -2.3556   0.00    0.0
2019/12/15 00:02:09.000   36.103639929  140.086311739    68.1337   5  15   2.8134   2.4658   6.0531  -0.5165   1.1158  -2.3558   0.00    0.0
2019/12/15 00:02:10.000   36.103635854  140.086315356    68.5343   5  15   2.8135   2.4658   6.0529  -0.5173   1.1165  -2.3560   0.00    0.0
2019/12/15 00:02:11.000   36.103635055  140.086312310    69.1393   5  15   2.8135   2.4658   6.0527  -0.5180   1.1172  -2.3562   0.00    0.0
2019/12/15 00:02:12.000   36.103636086  140.086318469    69.0636   5  15   2.8136   2.4659   6.0525  -0.5188   1.1179  -2.3564   0.00    0.0
2019/12/15 00:02:13.000   36.103632729  140.086320988    68.6495   5  15   2.8137   2.4659   6.0523  -0.5195   1.1185  -2.3566   0.00    0.0
2019/12/15 00:02:14.000   36.103638212  140.086314864    70.1352   5  15   2.8137   2.4659   6.0521  -0.5203   1.1192  -2.3568   0.00    0.0
2019/12/15 00:02:15.000   36.103634941  140.086316850    68.6864   5  15   2.8138   2.4660   6.0519  -0.5211   1.1199  -2.3570   0.00    0.0
2019/12/15 00:02:16.000   36.103635945  140.086313113    68.9502   5  15   2.8139   2.4660   6.0517  -0.5218   1.1206  -2.3572   0.00    0.0
2019/12/15 00:02:17.000   36.103637310  140.086311226    68.1211   5  15   2.8139   2.4661   6.0514  -0.5226   1.1212  -2.3574   0.00    0.0
2019/12/15 00:02:18.000   36.103636045  140.086313998    68.8083   5  15   2.8140   2.4661   6.0512  -0.5233   1.1219  -2.3576   0.00    0.0
2019/12/15 00:02:19.000   36.103632372  140.086312235    68.6814   5  15   2.8141   2.4661   6.0510  -0.5241   1.1226  -2.3578   0.00    0.0
2019/12/15 00:02:20.000   36.103633055  140.086309092    68.4227   5  15   2.8141   2.4662   6.0508  -0.5248   1.1232  -2.3581   0.00    0.0
2019/12/15 00:02:21.000   36.103635599  140.086311143    67.0596   5  15   2.8142   2.4662   6.0506  -0.5256   1.1239  -2.3583   0.00    0.0
2019/12/15 00:02:22.000   36.103632989  140.086312903    68.1774   5  15   2.8143   2.4663   6.0504  -0.5263   1.1246  -2.3585   0.00    0.0
2019/12/15 00:02:23.000   36.103642602  140.086314364    67.8390   5  15   2.8143   2.4663   6.0502  -0.5271   1.1252  -2.3587   0.00    0.0
2019/12/15 00:02:24.000   36.103637678  140.086311920    69.5940   5  15   2.8144   2.4663   6.0500  -0.5278   1.1259  -2.3589   0.00    0.0
2019/12/15 00:02:25.000   36.103635710  140.086315381    69.0319   5  15   2.8145   2.4664   6.0498  -0.5286   1.1266  -2.3591   0.00    0.0
2019/12/15 00:02:26.000   36.103641698  140.086312216    68.4763   5  15   2.8145   2.4664   6.0496  -0.5293   1.1272  -2.3593   0.00    0.0
2019/12/15 00:02:27.000   36.103641246  140.086316417    68.7320   5  15   2.8146   2.4664   6.0494  -0.5301   1.1279  -2.3595   0.00    0.0
2019/12/15 00:02:28.000   36.103635895  140.086313148    68.5802   5  15   2.8147   2.4665   6.0492  -0.5308   1.1286  -2.3597   0.00    0.0
2019/12/15 00:02:29.000   36.103642054  140.086318979    68.6355   5  15   2.8147   2.4665   6.0490  -0.5316   1.1292  -2.3599   0.00    0.0
2019/12/15 00:02:30.000   36.103641648  140.086313748    67.7661   5  15   2.8148   2.4666   6.0488  -0.5323   1.1299  -2.3601   0.00    0.0
2019/12/15 00:02:31.000   36.103642103  140.086313615    68.3187   5  15   2.8149   2.4666   6.0486  -0.5330   1.1306  -2.3603   0.00    0.0
2019/12/15 00:02:32.000   36.103647663  140.086314138    67.7962   5  15   2.8149   2.4666   6.0484  -0.5338   1.1312  -2.3605   0.00    0.0
2019/12/15 00:02:33.000   36.103644750  140.086318913    68.2380   5  15   2.8150   2.4667   6.0482  -0.5345   1.1319  -2.3607   0.00    0.0
2019/12/15 00:02:34.000   36.103642455  140.086314991    68.2263   5  15   2.8151   2.4667   6.0480  -0.5353   1.1326  -2.3609   0.00    0.0
2019/12/15 00:02:35.000   36.103640747  140.086316333    68.8035   5  15   2.8151   2.4668   6.0477  -0.5360   1.1332  -2.3612   0.00    0.0
2019/12/15 00:02:36.000   36.103641212  140.086315224    67.7846   5  15   2.8152   2.4668   6.0475  -0.5367   1.1339  -2.3614   0.00    0.0
2019/12/15 00:02:37.000   36.103641721  140.086305494    68.6105   5  15   2.8153   2.4668   6.0473  -0.5375   1.1345  -2.3616   0.00    0.0
2019/12/15 00:02:38.000   36.103644224  140.086314720    67.0784   5  15   2.8153   2.4669   6.0471  -0.5382   1.1352  -2.3618   0.00    0.0
2019/12/15 00:02:39.000   36.103640284  140.086308289    68.7840   5  15   2.8154   2.4669   6.0469  -0.5390   1.1359  -2.3620   0.00    0.0
2019/12/15 00:02:40.000   36.103645399  140.086310542    67.8730   5  15   2.8155   2.4670   6.0467  -0.5397   1.1365  -2.3622   0.00    0.0
2019/12/15 00:02:41.000   36.103636568  140.086313630    68.5962   5  15   2.8155   2.4670   6.0465  -0.5404   1.1372  -2.3624   0.00    0.0
2019/12/15 00:02:42.000   36.103640807  140.086305950    68.6335   5  15   2.8156   2.4670   6.0463  -0.5412   1.1378  -2.3626   0.00    0.0
2019/12/15 00:02:43.000   36.103637907  140.086307532    68.5973   5  15   2.8157   2.4671   6.0461  -0.5419   1.1385  -2.3628   0.00    0.0
2019/12/15 00:02:44.000   36.103644462  140.086313020    68.4248   5  15   2.8157   2.4671   6.0459  -0.5426   1.1392  -2.3630   0.00    0.0
2019/12/15 00:02:45.000   36.103645135  140.086310980    66.9846   5  15   2.8158   2.4672   6.0457  -0.5434   1.1398  -2.3632   0.00    0.0
2019/12/15 00:02:46.000   36.103643133  140.086311732    69.1668   5  15   2.8159   2.4672   6.0455  -0.5441   1.1405  -2.3634   0.00    0.0
2019/12/15 00:02:47.000   36.103640342  140.086316126    68.2444   5  15   2.8159   2.4672   6.0452  -0.5448   1.1411  -2.3636   0.00    0.0
2019/12/15 00:02:48.000   36.103642255  140.086318225    69.6566   5  15   2.8160   2.4673   6.0450  -0.5455   1.1418  -2.3638   0.00    0.0
2019/12/15 00:02:49.000   36.103646115  140.086314250    68.0629   5  15   2.8161   2.4673   6.0448  -0.5463   1.1424  -2.3640   0.00    0.0
2019/12/15 00:02:50.000   36.103648797  140.086314298    67.0197   5  15   2.8161   2.4674   6.0446  -0.5470   1.1431  -2.3642   0.00    0.0
2019/12/15 00:02:51.000   36.103642182  140.086316677    69.6473   5  15   2.8162   2.4674   6.0444  -0.5477   1.1438  -2.3644   0.00    0.0
2019/12/15 00:02:52.000   36.103643155  140.086321064    67.7468   5  15   2.8163   2.4674   6.0442  -0.5484   1.1444  -2.3646   0.00    0.0
2019/12/15 00:02:53.000   36.103646807  140.086308954    68.1528   5  15   2.8163   2.4675   6.0440  -0.5492   1.1451  -2.3648   0.00    0.0
2019/12/15 00:02:54.000   36.103643785  140.086316654    67.0892   5  15   2.8164   2.4675   6.0438  -0.5499   1.1457  -2.3650   0.00    0.0
2019/12/15 00:02:55.000   36.103633256  140.086317022    69.4343   5  15   2.8165   2.4676   6.0436  -0.5506   1.1464  -2.3652   0.00    0.0
2019/12/15 00:02:56.000   36.103645504  140.086314029    67.5831   5  15   2.8165   2.4676   6.0434  -0.5513   1.1470  -2.3655   0.00    0.0
2019/12/15 00:02:57.000   36.103640968  140.086312698    67.6293   5  15   2.8166   2.4676   6.0432  -0.5521   1.1477  -2.3657   0.00    0.0
2019/12/15 00:02:58.000   36.103649760  140.086315084    66.9470   5  15   2.8167   2.4677   6.0429  -0.5528   1.1483  -2.3659   0.00    0.0
2019/12/15 00:02:59.000   36.103642184  140.086323145    67.4464   5  15   2.8168   2.4677   6.0427  -0.5535   1.1490  -2.3661   0.00    0.0
2019/12/15 00:03:00.000   36.103639443  140.086317125    68.8622   5  15   2.8168   2.4678   6.0425  -0.5542   1.1496  -2.3663   0.00    0.0
2019/12/15 00:03:01.000   36.103637023  140.086310496    68.5214   5  15   2.8169   2.4678   6.0423  -0.5549   1.1503  -2.3665   0.00    0.0
2019/12/15 00:03:02.000   36.103639857  140.086314765    66.7462   5  15   2.8170   2.4678   6.0421  -0.5556   1.1509  -2.3667   0.00    0.0
2019/12/15 00:03:03.000   36.103638590  140.086314431    68.9986   5  15   2.8170   2.4679   6.0419  -0.5564   1.1516  -2.3669   0.00    0.0
2019/12/15 00:03:04.000   36.103638311  140.086313511    68.4473   5  15   2.8171   2.4679   6.0417  -0.5571   1.1522  -2.3671   0.00    0.0
2019/12/15 00:03:05.000   36.103645674  140.086322040    68.5339   5  15   2.8172   2.4680   6.0415  -0.5578   1.1529  -2.3673   0.00    0.0
2019/12/15 00:03:06.000   36.103650253  140.086319445    68.4071   5  15   2.8172   2.4680   6.0413  -0.5585   1.1535  -2.3675   0.00    0.0
2019/12/15 00:03:07.000   36.103642662  140.086320550    69.3205   5  15   2.8173   2.4680   6.0410  -0.5592   1.1542  -2.3677   0.00    0.0
2019/12/15 00:03:08.000   36.103645589  140.086317383    69.4735   5  15   2.8174   2.4681   6.0408  -0.5599   1.1548  -2.3679   0.00    0.0
2019/12/15 00:03:09.000   36.103641662  140.086313588    68.2871   5  15   2.8174   2.4681   6.0406  -0.5606   1.1555  -2.3681   0.00    0.0
2019/12/15 00:03:10.000   36.103633898  140.086322592    68.6766   5  15   2.8175   2.4682   6.0404  -0.5614   1.1561  -2.3683   0.00    0.0
2019/12/15 00:03:11.000   36.103639832  140.086312558    69.2021   5  15   2.8176   2.4682   6.0402  -0.5621   1.1568  -2.3685   0.00    0.0
2019/12/15 00:03:12.000   36.103639919  140.086316494    69.4473   5  15   2.8176   2.4683   6.0400  -0.5628   1.1574  -2.3687   0.00    0.0
2019/12/15 00:03:13.000   36.103643209  140.086316447    67.3663   5  15   2.8177   2.4683   6.0398  -0.5635   1.1580  -2.3689   0.00    0.0
2019/12/15 00:03:14.000   36.103645290  140.086317063    67.6534   5  15   2.8178   2.4683   6.0396  -0.5642   1.1587  -2.3691   0.00    0.0
2019/12/15 00:03:15.000   36.103649130  140.086320558    68.6691   5  15   2.8178   2.4684   6.0394  -0.5649   1.1593  -2.3693   0.00    0.0
2019/12/15 00:03:16.000   36.103642319  140.086311158    69.2963   5  15   2.8179   2.4684   6.0391  -0.5656   1.1600  -2.3695   0.00    0.0
2019/12/15 00:03:17.000   36.103644394  140.086313672    69.5718   5  15   2.8180   2.4685   6.0389  -0.5663   1.1606  -2.3697   0.00    0.0
2019/12/15 00:03:18.000   36.103640737  140.086317011    68.3498   5  15   2.8180   2.4685   6.0387  -0.5670   1.1613  -2.3699   0.00    0.0
2019/12/15 00:03:19.000   36.103642454  140.086320347    67.9587   5  15   2.8181   2.4685   6.0385  -0.5677   1.1619  -2.3701   0.00    0.0
2019/12/15 00:03:20.000   36.103650946  140.086321250    67.2019   5  15   2.8182   2.4686   6.0383  -0.5684   1.1625  -2.3703   0.00    0.0
2019/12/15 00:03:21.000   36.103638276  140.086316924    68.7574   5  15   2.8182   2.4686   6.0381  -0.5691   1.1632  -2.3705   0.00    0.0
2019/12/15 00:03:22.000   36.103648884  140.086316955    68.2026   5  15   2.8183   2.4687   6.0379  -0.5698   1.1638  -2.3707   0.00    0.0
2019/12/15 00:03:23.000   36.103644129  140.086314929    68.1030   5  15   2.8184   2.4687   6.0376  -0.5705   1.1645  -2.3709   0.00    0.0
2019/12/15 00:03:24.000   36.103635776  140.086317891    70.1797   5  15   2.8184   2.4688   6.0374  -0.5712   1.1651  -2.3711   0.00    0.0
2019/12/15 00:03:25.000   36.103641176  140.086318960    69.2162   5  15   2.8185   2.4688   6.0372  -0.5719   1.1657  -2.3713   0.00    0.0
2019/12/15 00:03:26.000   36.103643543  140.086319812    69.2438   5  15   2.8186   2.4688   6.0370  -0.5726   1.1664  -2.3715   0.00    0.0
2019/12/15 00:03:27.000   36.103647204  140.086321620    68.7843   5  15   2.8186   2.4689   6.0368  -0.5733   1.1670  -2.3717   0.00    0.0
2019/12/15 00:03:28.000   36.103644468  140.086312923    69.3189   5  15   2.8187   2.4689   6.0366  -0.5740   1.1677  -2.3719   0.00    0.0
2019/12/15 00:03:29.000   36.103638627  140.086316670    69.7629   5  15   2.8188   2.4690   6.0364  -0.5747   1.1683  -2.3721   0.00    0.0
2019/12/15 00:03:30.000   36.103644099  140.086317918    69.1563   5  15   2.8189   2.4690   6.0362  -0.5754   1.1689  -2.3723   0.00    0.0
2019/12/15 00:03:31.000   36.103642223  140.086312553    68.6137   5  15   2.8189   2.4690   6.0359  -0.5761   1.1696  -2.3725   0.00    0.0
2019/12/15 00:03:32.000   36.103641843  140.086318135    69.5344   5  15   2.8190   2.4691   6.0357  -0.5768   1.1702  -2.3727   0.00    0.0
2019/12/15 00:03:33.000   36.103645427  140.086318175    68.4188   5  15   2.8191   2.4691   6.0355  -0.5775   1.1708  -2.3729   0.00    0.0
2019/12/15 00:03:34.000   36.103639700  140.086318458    68.5229   5  15   2.8191   2.4692   6.0353  -0.5782   1.1715  -2.3731   0.00    0.0
2019/12/15 00:03:35.000   36.103638753  140.086309710    69.2292   5  15   2.8192   2.4692   6.0351  -0.5789   1.1721  -2.3733   0.00    0.0
2019/12/15 00:03:36.000   36.103639691  140.086315620    69.6997   5  15   2.8193   2.4693   6.0349  -0.5796   1.1727  -2.3735   0.00    0.0
2019/12/15 00:03:37.000   36.103641872  140.086318915    69.8238   5  15   2.8193   2.4693   6.0346  -0.5803   1.1734  -2.3737   0.00    0.0
2019/12/15 00:03:38.000   36.103641297  140.086315194    69.6579   5  15   2.8194   2.4693   6.0344  -0.5809   1.1740  -2.3739   0.00    0.0
2019/12/15 00:03:39.000   36.103640651  140.086313034    69.4613   5  15   2.8195   2.4694   6.0342  -0.5816   1.1746  -2.3741   0.00    0.0
2019/12/15 00:03:40.000   36.103642269  140.086315563    69.1419   5  15   2.8195   2.4694   6.0340  -0.5823   1.1753  -2.3743   0.00    0.0
2019/12/15 00:03:41.000   36.103644862  140.086313977    69.5334   5  15   2.8196   2.4695   6.0338  -0.5830   1.1759  -2.3745   0.00    0.0
2019/12/15 00:03:42.000   36.103642193  140.086315127    68.7365   5  15   2.8197   2.4695   6.0336  -0.5837   1.1765  -2.3747   0.00    0.0
2019/12/15 00:03:43.000   36.103642557  140.086314989    68.4336   5  15   2.8197   2.4696   6.0334  -0.5844   1.1772  -2.3749   0.00    0.0
2019/12/15 00:03:44.000   36.103643775  140.086315798    69.4254   5  15   2.8198   2.4696   6.0331  -0.5851   1.1778  -2.3751   0.00    0.0
2019/12/15 00:03:45.000   36.103639545  140.086318677    69.7921   5  15   2.8199   2.4696   6.0329  -0.5858   1.1784  -2.3753   0.00    0.0
2019/12/15 00:03:46.000   36.103645647  140.086313564    67.3258   5  15   2.8199   2.4697   6.0327  -0.5864   1.1791  -2.3755   0.00    0.0
2019/12/15 00:03:47.000   36.103640328  140.086314982    69.2975   5  15   2.8200   2.4697   6.0325  -0.5871   1.1797  -2.3757   0.00    0.0
2019/12/15 00:03:48.000   36.103644037  140.086311451    69.9809   5  15   2.8201   2.4698   6.0323  -0.5878   1.1803  -2.3759   0.00    0.0
2019/12/15 00:03:49.000   36.103641959  140.086313867    69.2076   5  15   2.8202   2.4698   6.0321  -0.5885   1.1809  -2.3761   0.00    0.0
2019/12/15 00:03:50.000   36.103644367  140.086315391    68.5576   5  15   2.8202   2.4699   6.0318  -0.5892   1.1816  -2.3763   0.00    0.0
2019/12/15 00:03:51.000   36.103641659  140.086318559    69.6173   5  15   2.8203   2.4699   6.0316  -0.5898   1.1822  -2.3765   0.00    0.0
2019/12/15 00:03:52.000   36.103644053  140.086308106    67.3796   5  15   2.8204   2.4700   6.0314  -0.5905   1.1828  -2.3767   0.00    0.0
2019/12/15 00:03:53.000   36.103643014  140.086316045    68.9736   5  15   2.8204   2.4700   6.0312  -0.5912   1.1835  -2.3769   0.00    0.0
2019/12/15 00:03:54.000   36.103646553  140.086307478    68.4387   5  15   2.8205   2.4700   6.0310  -0.5919   1.1841  -2.3771   0.00    0.0
2019/12/15 00:03:55.000   36.103641705  140.086311283    69.6308   5  15   2.8206   2.4701   6.0307  -0.5926   1.1847  -2.3773   0.00    0.0
2019/12/15 00:03:56.000   36.103640496  140.086310918    68.2666   5  15   2.8206   2.4701   6.0305  -0.5932   1.1853  -2.3775   0.00    0.0
2019/12/15 00:03:57.000   36.103641154  140.086309842    69.8403   5  15   2.8207   2.4702   6.0303  -0.5939   1.1860  -2.3777   0.00    0.0
2019/12/15 00:03:58.000   36.103644052  140.086308602    69.3201   5  15   2.8208   2.4702   6.0301  -0.5946   1.1866  -2.3779   0.00    0.0
2019/12/15 00:03:59.000   36.103639633  140.086305165    68.6276   5  15   2.8208   2.4703   6.0299  -0.5953   1.1872  -2.3781   0.00    0.0
2019/12/15 00:04:00.000   36.103642865  140.086298976    69.1500   5  15   2.8209   2.4703   6.0297  -0.5959   1.1878  -2.3783   0.00    0.0
2019/12/15 00:04:01.000   36.103648780  140.086302426    68.8181   5  15   2.8210   2.4703   6.0294  -0.5966   1.1885  -2.3785   0.00    0.0
2019/12/15 00:04:02.000   36.103644858  140.086309283    68.8124   5  15   2.8210   2.4704   6.0292  -0.5973   1.1891  -2.3787   0.00    0.0
2019/12/15 00:04:03.000   36.103642992  140.086304319    70.0064   5  15   2.8211   2.4704   6.0290  -0.5980   1.1897  -2.3788   0.00    0.0
2019/12/15 00:04:04.000   36.103642173  140.086304007    70.2261   5  15   2.8212   2.4705   6.0288  -0.5986   1.1903  -2.3790   0.00    0.0
2019/12/15 00:04:05.000   36.103647102  140.086308055    69.4701   5  15   2.8213   2.4705   6.0286  -0.5993   1.1909  -2.3792   0.00    0.0
2019/12/15 00:04:06.000   36.103642703  140.086313175    69.9915   5  15   2.8213   2.4706   6.0283  -0.6000   1.1916  -2.3794   0.00    0.0
2019/12/15 00:04:07.000   36.103644207  140.086304573    70.4642   5  15   2.8214   2.4706   6.0281  -0.6007   1.1922  -2.3796   0.00    0.0
2019/12/15 00:04:08.000   36.103646080  140.086312597    69.3071   5  15   2.8215   2.4707   6.0279  -0.6013   1.1928  -2.3798   0.00    0.0
2019/12/15 00:04:09.000   36.103645363  140.086309026    69.7285   5  15   2.8215   2.4707   6.0277  -0.6020   1.1934  -2.3800   0.00    0.0
2019/12/15 00:04:10.000   36.103642533  140.086311279    69.3824   5  15   2.8216   2.4707   6.0275  -0.6027   1.1940  -2.3802   0.00    0.0
2019/12/15 00:04:11.000   36.103639519  140.086314737    70.4692   5  15   2.8217   2.4708   6.0272  -0.6033   1.1947  -2.3804   0.00    0.0
2019/12/15 00:04:12.000   36.103644353  140.086318496    69.3440   5  15   2.8217   2.4708   6.0270  -0.6040   1.1953  -2.3806   0.00    0.0
2019/12/15 00:04:13.000   36.103638489  140.086312965    70.4634   5  15   2.8218   2.4709   6.0268  -0.6047   1.1959  -2.3808   0.00    0.0
2019/12/15 00:04:14.000   36.103641346  140.086313622    69.1105   5  15   2.8219   2.4709   6.0266  -0.6053   1.1965  -2.3810   0.00    0.0
2019/12/15 00:04:15.000   36.103643750  140.086311351    69.1685   5  15   2.8219   2.4710   6.0264  -0.6060   1.1971  -2.3812   0.00    0.0
2019/12/15 00:04:16.000   36.103647954  140.086307663    69.7726   5  15   2.8220   2.4710   6.0261  -0.6067   1.1977  -2.3814   0.00    0.0
2019/12/15 00:04:17.000   36.103645282  140.086310579    69.0681   5  15   2.8221   2.4711   6.0259  -0.6073   1.1984  -2.3816   0.00    0.0
2019/12/15 00:04:18.000   36.103638660  140.086309812    69.1244   5  15   2.8222   2.4711   6.0257  -0.6080   1.1990  -2.3818   0.00    0.0
2019/12/15 00:04:19.000   36.103642495  140.086308124    69.3764   5  15   2.8222   2.4712   6.0255  -0.6087   1.1996  -2.3820   0.00    0.0
2019/12/15 00:04:20.000   36.103645691  140.086317251    70.1187   5  15   2.8223   2.4712   6.0253  -0.6093   1.2002  -2.3822   0.00    0.0
2019/12/15 00:04:21.000   36.103642191  140.086311504    70.0607   5  15   2.8224   2.4712   6.0250  -0.6100   1.2008  -2.3824   0.00    0.0
2019/12/15 00:04:22.000   36.103646973  140.086316252    69.4875   5  15   2.8224   2.4713   6.0248  -0.6106   1.2014  -2.3826   0.00    0.0
2019/12/15 00:04:23.000   36.103638366  140.086313222    69.7260   5  15   2.8225   2.4713   6.0246  -0.6113   1.2021  -2.3827   0.00    0.0
2019/12/15 00:04:24.000   36.103644847  140.086311416    68.9051   5  15   2.8226   2.4714   6.0244  -0.6120   1.2027  -2.3829   0.00    0.0
2019/12/15 00:04:25.000   36.103636218  140.086311554    69.7575   5  15   2.8226   2.4714   6.0242  -0.6126   1.2033  -2.3831   0.00    0.0
2019/12/15 00:04:26.000   36.103642002  140.086316832    69.9734   5  15   2.8227   2.4715   6.0239  -0.6133   1.2039  -2.3833   0.00    0.0
2019/12/15 00:04:27.000   36.103644242  140.086315704    69.6308   5  15   2.8228   2.4715   6.0237  -0.6139   1.2045  -2.3835   0.00    0.0
2019/12/15 00:04:28.000   36.103643751  140.086318994    69.8363   5  15   2.8229   2.4716   6.0235  -0.6146   1.2051  -2.3837   0.00    0.0
2019/12/15 00:04:29.000   36.103643631  140.086313453    69.5362   5  15   2.8229   2.4716   6.0233  -0.6153   1.2057  -2.3839   0.00    0.0
2019/12/15 00:04:30.000   36.103643728  140.086315805    70.3275   5  15   2.8230   2.4717   6.0231  -0.6159   1.2063  -2.3841   0.00    0.0
2019/12/15 00:04:31.000   36.103643926  140.086316758    68.6340   5  15   2.8231   2.4717   6.0228  -0.6166   1.2069  -2.3843   0.00    0.0
2019/12/15 00:04:32.000   36.103641236  140.086316746    68.9054   5  15   2.8231   2.4717   6.0226  -0.6172   1.2076  -2.3845   0.00    0.0
2019/12/15 00:04:33.000   36.103642832  140.086315081    70.7017   5  15   2.8232   2.4718   6.0224  -0.6179   1.2082  -2.3847   0.00    0.0
2019/12/15 00:04:34.000   36.103638649  140.086318536    69.7483   5  15   2.8233   2.4718   6.0222  -0.6185   1.2088  -2.3849   0.00    0.0
2019/12/15 00:04:35.000   36.103641590  140.086310764    69.5892   5  15   2.8233   2.4719   6.0219  -0.6192   1.2094  -2.3851   0.00    0.0
2019/12/15 00:04:36.000   36.103641248  140.086317525    70.4566   5  15   2.8234   2.4719   6.0217  -0.6198   1.2100  -2.3853   0.00    0.0
2019/12/15 00:04:37.000   36.103638089  140.086317292    70.6848   5  15   2.8235   2.4720   6.0215  -0.6205   1.2106  -2.3855   0.00    0.0
2019/12/15 00:04:38.000   36.103647837  140.086313084    68.4446   5  15   2.8236   2.4720   6.0213  -0.6211   1.2112  -2.3856   0.00    0.0
2019/12/15 00:04:39.000   36.103641298  140.086313576    69.1861   5  15   2.8236   2.4721   6.0210  -0.6218   1.2118  -2.3858   0.00    0.0
2019/12/15 00:04:40.000   36.103638471  140.086313435    70.2958   5  15   2.8237   2.4721   6.0208  -0.6224   1.2124  -2.3860   0.00    0.0
2019/12/15 00:04:41.000   36.103642164  140.086319443    70.1937   5  15   2.8238   2.4722   6.0206  -0.6231   1.2130  -2.3862   0.00    0.0
2019/12/15 00:04:42.000   36.103641081  140.086311637    69.1197   5  15   2.8238   2.4722   6.0204  -0.6237   1.2136  -2.3864   0.00    0.0
2019/12/15 00:04:43.000   36.103641007  140.086311123    68.7786   5  15   2.8239   2.4723   6.0202  -0.6244   1.2142  -2.3866   0.00    0.0
2019/12/15 00:04:44.000   36.103642480  140.086315631    69.2397   5  15   2.8240   2.4723   6.0199  -0.6250   1.2148  -2.3868   0.00    0.0
2019/12/15 00:04:45.000   36.103636518  140.086309410    68.8291   5  15   2.8240   2.4723   6.0197  -0.6257   1.2155  -2.3870   0.00    0.0
2019/12/15 00:04:46.000   36.103638464  140.086316710    69.2808   5  15   2.8241   2.4724   6.0195  -0.6263   1.2161  -2.3872   0.00    0.0
2019/12/15 00:04:47.000   36.103638617  140.086308704    68.8358   5  15   2.8242   2.4724   6.0193  -0.6270   1.2167  -2.3874   0.00    0.0
2019/12/15 00:04:48.000   36.103638926  140.086310657    68.4423   5  15   2.8243   2.4725   6.0190  -0.6276   1.2173  -2.3876   0.00    0.0
2019/12/15 00:04:49.000   36.103640041  140.086310951    69.2210   5  15   2.8243   2.4725   6.0188  -0.6283   1.2179  -2.3878   0.00    0.0
2019/12/15 00:04:50.000   36.103641059  140.086312786    68.7476   5  15   2.8244   2.4726   6.0186  -0.6289   1.2185  -2.3879   0.00    0.0
2019/12/15 00:04:51.000   36.103634477  140.086313082    69.6956   5  15   2.8245   2.4726   6.0184  -0.6296   1.2191  -2.3881   0.00    0.0
2019/12/15 00:04:52.000   36.103637477  140.086315460    69.5449   5  15   2.8245   2.4727   6.0181  -0.6302   1.2197  -2.3883   0.00    0.0
2019/12/15 00:04:53.000   36.103641559  140.086313313    68.8888   5  15   2.8246   2.4727   6.0179  -0.6309   1.2203  -2.3885   0.00    0.0
2019/12/15 00:04:54.000   36.103638891  140.086317848    68.7905   5  15   2.8247   2.4728   6.0177  -0.6315   1.2209  -2.3887   0.00    0.0
2019/12/15 00:04:55.000   36.103637357  140.086309486    68.3786   5  15   2.8247   2.4728   6.0175  -0.6321   1.2215  -2.3889   0.00    0.0
2019/12/15 00:04:56.000   36.103640869  140.086312481    68.3984   5  15   2.8248   2.4729   6.0172  -0.6328   1.2221  -2.3891   0.00    0.0
2019/12/15 00:04:57.000   36.103641362  140.086311427    67.3501   5  15   2.8249   2.4729   6.0170  -0.6334   1.2227  -2.3893   0.00    0.0
2019/12/15 00:04:58.000   36.103640285  140.086314531    67.7004   5  15   2.8250   2.4730   6.0168  -0.6341   1.2233  -2.3895   0.00    0.0
2019/12/15 00:04:59.000   36.103642693  140.086315174    68.5509   5  15   2.8250   2.4730   6.0166  -0.6347   1.2239  -2.3897   0.00    0.0
2019/12/15 00:05:00.000   36.103635780  140.086311501    68.8775   5  15   2.8251   2.4731   6.0163  -0.6354   1.2245  -2.3899   0.00    0.0
2019/12/15 00:05:01.000   36.103636527  140.086318872    70.4779   5  15   2.8252   2.4731   6.0161  -0.6360   1.2251  -2.3900   0.00    0.0
2019/12/15 00:05:02.000   36.103638111  140.086312289    70.1901   5  15   2.8252   2.4731   6.0159  -0.6366   1.2257  -2.3902   0.00    0.0
2019/12/15 00:05:03.000   36.103640140  140.086308606    69.2761   5  15   2.8253   2.4732   6.0157  -0.6373   1.2263  -2.3904   0.00    0.0
2019/12/15 00:05:04.000   36.103631369  140.086313951    69.5672   5  15   2.8254   2.4732   6.0154  -0.6379   1.2269  -2.3906   0.00    0.0
2019/12/15 00:05:05.000   36.103636912  140.086314230    69.2102   5  15   2.8254   2.4733   6.0152  -0.6385   1.2275  -2.3908   0.00    0.0
2019/12/15 00:05:06.000   36.103637334  140.086316229    69.6847   5  15   2.8255   2.4733   6.0150  -0.6392   1.2281  -2.3910   0.00    0.0
2019/12/15 00:05:07.000   36.103635667  140.086312196    70.6860   5  15   2.8256   2.4734   6.0147  -0.6398   1.2287  -2.3912   0.00    0.0
2019/12/15 00:05:08.000   36.103638068  140.086306769    68.7500   5  15   2.8257   2.4734   6.0145  -0.6405   1.2292  -2.3914   0.00    0.0
2019/12/15 00:05:09.000   36.103634573  140.086309682    69.8329   5  15   2.8257   2.4735   6.0143  -0.6411   1.2298  -2.3916   0.00    0.0
2019/12/15 00:05:10.000   36.103639068  140.086312399    68.3522   5  15   2.8258   2.4735   6.0141  -0.6417   1.2304  -2.3917   0.00    0.0
2019/12/15 00:05:11.000   36.103634400  140.086311803    68.7966   5  15   2.8259   2.4736   6.0138  -0.6424   1.2310  -2.3919   0.00    0.0
2019/12/15 00:05:12.000   36.103641725  140.086308075    67.4587   5  15   2.8259   2.4736   6.0136  -0.6430   1.2316  -2.3921   0.00    0.0
2019/12/15 00:05:13.000   36.103647482  140.086311072    67.8778   5  15   2.8260   2.4737   6.0134  -0.6436   1.2322  -2.3923   0.00    0.0
2019/12/15 00:05:14.000   36.103646358  140.086311292    68.7690   5  15   2.8261   2.4737   6.0132  -0.6443   1.2328  -2.3925   0.00    0.0
2019/12/15 00:05:15.000   36.103642252  140.086307652    68.6246   5  15   2.8262   2.4738   6.0129  -0.6449   1.2334  -2.3927   0.00    0.0
2019/12/15 00:05:16.000   36.103638747  140.086314259    68.8463   5  15   2.8262   2.4738   6.0127  -0.6455   1.2340  -2.3929   0.00    0.0
2019/12/15 00:05:17.000   36.103637415  140.086308884    69.7846   5  15   2.8263   2.4739   6.0125  -0.6462   1.2346  -2.3931   0.00    0.0
2019/12/15 00:05:18.000   36.103643105  140.086313069    68.9546   5  15   2.8264   2.4739   6.0122  -0.6468   1.2352  -2.3933   0.00    0.0
2019/12/15 00:05:19.000   36.103639680  140.086310001    68.3442   5  15   2.8264   2.4740   6.0120  -0.6474   1.2358  -2.3934   0.00    0.0
2019/12/15 00:05:20.000   36.103641431  140.086310290    69.1817   5  15   2.8265   2.4740   6.0118  -0.6480   1.2364  -2.3936   0.00    0.0
2019/12/15 00:05:21.000   36.103636538  140.086314232    69.2154   5  15   2.8266   2.4741   6.0116  -0.6487   1.2369  -2.3938   0.00    0.0
2019/12/15 00:05:22.000   36.103639589  140.086311917    69.2927   5  15   2.8267   2.4741   6.0113  -0.6493   1.2375  -2.3940   0.00    0.0
2019/12/15 00:05:23.000   36.103644622  140.086311672    69.0543   5  15   2.8267   2.4742   6.0111  -0.6499   1.2381  -2.3942   0.00    0.0
2019/12/15 00:05:24.000   36.103635509  140.086309687    69.2693   5  15   2.8268   2.4742   6.0109  -0.6506   1.2387  -2.3944   0.00    0.0
2019/12/15 00:05:25.000   36.103636136  140.086306914    69.7054   5  15   2.8269   2.4743   6.0107  -0.6512   1.2393  -2.3946   0.00    0.0
2019/12/15 00:05:26.000   36.103632205  140.086309764    69.7588   5  15   2.8269   2.4743   6.0104  -0.6518   1.2399  -2.3948   0.00    0.0
2019/12/15 00:05:27.000   36.103634453  140.086314746    69.8183   5  15   2.8270   2.4744   6.0102  -0.6524   1.2405  -2.3949   0.00    0.0
2019/12/15 00:05:28.000   36.103640694  140.086313502    69.7690   5  15   2.8271   2.4744   6.0100  -0.6531   1.2411  -2.3951   0.00    0.0
2019/12/15 00:05:29.000   36.103639745  140.086319323    69.6814   5  15   2.8271   2.4745   6.0097  -0.6537   1.2417  -2.3953   0.00    0.0
2019/12/15 00:05:30.000   36.103642772  140.086316669    70.2811   5  15   2.8272   2.4745   6.0095  -0.6543   1.2422  -2.3955   0.00    0.0
2019/12/15 00:05:31.000   36.103640056  140.086320114    68.9514   5  15   2.8273   2.4746   6.0093  -0.6549   1.2428  -2.3957   0.00    0.0
2019/12/15 00:05:32.000   36.103640012  140.086326324    69.5685   5  15   2.8274   2.4746   6.0090  -0.6556   1.2434  -2.3959   0.00    0.0
2019/12/15 00:05:33.000   36.103635261  140.086321304    69.6373   5  15   2.8274   2.4746   6.0088  -0.6562   1.2440  -2.3961   0.00    0.0
2019/12/15 00:05:34.000   36.103632969  140.086320479    69.6197   5  15   2.8275   2.4747   6.0086  -0.6568   1.2446  -2.3962   0.00    0.0
2019/12/15 00:05:35.000   36.103638865  140.086327636    70.6270   5  15   2.8276   2.4747   6.0084  -0.6574   1.2452  -2.3964   0.00    0.0
2019/12/15 00:05:36.000   36.103635247  140.086320565    70.3382   5  15   2.8276   2.4748   6.0081  -0.6580   1.2458  -2.3966   0.00    0.0
2019/12/15 00:05:37.000   36.103637146  140.086317576    69.3488   5  15   2.8277   2.4748   6.0079  -0.6587   1.2463  -2.3968   0.00    0.0
2019/12/15 00:05:38.000   36.103638591  140.086321287    69.9418   5  15   2.8278   2.4749   6.0077  -0.6593   1.2469  -2.3970   0.00    0.0
2019/12/15 00:05:39.000   36.103641380  140.086312740    67.9555   5  15   2.8279   2.4749   6.0074  -0.6599   1.2475  -2.3972   0.00    0.0
2019/12/15 00:05:40.000   36.103638633  140.086314750    68.7066   5  15   2.8279   2.4750   6.0072  -0.6605   1.2481  -2.3974   0.00    0.0
2019/12/15 00:05:41.000   36.103640825  140.086315845    68.8089   5  15   2.8280   2.4750   6.0070  -0.6612   1.2487  -2.3975   0.00    0.0
2019/12/15 00:05:42.000   36.103638743  140.086312505    69.0693   5  15   2.8281   2.4751   6.0067  -0.6618   1.2493  -2.3977   0.00    0.0
2019/12/15 00:05:43.000   36.103638086  140.086312452    68.3688   5  15   2.8281   2.4751   6.0065  -0.6624   1.2498  -2.3979   0.00    0.0
2019/12/15 00:05:44.000   36.103638822  140.086312082    69.7134   5  15   2.8282   2.4752   6.0063  -0.6630   1.2504  -2.3981   0.00    0.0
2019/12/15 00:05:45.000   36.103640251  140.086312685    69.0849   5  15   2.8283   2.4752   6.0061  -0.6636   1.2510  -2.3983   0.00    0.0
2019/12/15 00:05:46.000   36.103638341  140.086314147    69.3740   5  15   2.8284   2.4753   6.0058  -0.6642   1.2516  -2.3985   0.00    0.0
2019/12/15 00:05:47.000   36.103640261  140.086315779    69.3837   5  15   2.8284   2.4753   6.0056  -0.6649   1.2522  -2.3987   0.00    0.0
2019/12/15 00:05:48.000   36.103638296  140.086319595    69.0414   5  15   2.8285   2.4754   6.0054  -0.6655   1.2527  -2.3988   0.00    0.0
2019/12/15 00:05:49.000   36.103636337  140.086310559    68.7857   5  15   2.8286   2.4754   6.0051  -0.6661   1.2533  -2.3990   0.00    0.0
2019/12/15 00:05:50.000   36.103638213  140.086318577    68.3814   5  15   2.8286   2.4755   6.0049  -0.6667   1.2539  -2.3992   0.00    0.0
2019/12/15 00:05:51.000   36.103639341  140.086314181    69.0372   5  15   2.8287   2.4755   6.0047  -0.6673   1.2545  -2.3994   0.00    0.0
2019/12/15 00:05:52.000   36.103638734  140.086319115    68.8894   5  15   2.8288   2.4756   6.0044  -0.6679   1.2550  -2.3996   0.00    0.0
2019/12/15 00:05:53.000   36.103643146  140.086317609    68.4932   5  15   2.8289   2.4756   6.0042  -0.6685   1.2556  -2.3998   0.00    0.0
2019/12/15 00:05:54.000   36.103640505  140.086316147    68.9883   5  15   2.8289   2.4757   6.0040  -0.6692   1.2562  -2.3999   0.00    0.0
2019/12/15 00:05:55.000   36.103638639  140.086311455    68.0379   5  15   2.8290   2.4757   6.0037  -0.6698   1.2568  -2.4001   0.00    0.0
2019/12/15 00:05:56.000   36.103639280  140.086309317    68.9154   5  15   2.8291   2.4758   6.0035  -0.6704   1.2574  -2.4003   0.00    0.0
2019/12/15 00:05:57.000   36.103639987  140.086316079    67.8526   5  15   2.8292   2.4759   6.0033  -0.6710   1.2579  -2.4005   0.00    0.0
2019/12/15 00:05:58.000   36.103644623  140.086308376    68.1686   5  15   2.8292   2.4759   6.0030  -0.6716   1.2585  -2.4007   0.00    0.0
2019/12/15 00:05:59.000   36.103643984  140.086309127    68.3153   5  15   2.8293   2.4760   6.0028  -0.6722   1.2591  -2.4009   0.00    0.0
2019/12/15 00:06:00.000   36.103644078  140.086309560    68.5434   5  15   2.8294   2.4760   6.0026  -0.6728   1.2597  -2.4010   0.00    0.0
2019/12/15 00:06:01.000   36.103645175  140.086308249    67.2903   5  15   2.8294   2.4761   6.0023  -0.6734   1.2602  -2.4012   0.00    0.0
2019/12/15 00:06:02.000   36.103645565  140.086306728    67.1668   5  15   2.8295   2.4761   6.0021  -0.6741   1.2608  -2.4014   0.00    0.0
2019/12/15 00:06:03.000   36.103647533  140.086309320    66.7320   5  15   2.8296   2.4762   6.0019  -0.6747   1.2614  -2.4016   0.00    0.0
2019/12/15 00:06:04.000   36.103643635  140.086309589    67.5494   5  15   2.8297   2.4762   6.0016  -0.6753   1.2620  -2.4018   0.00    0.0
2019/12/15 00:06:05.000   36.103642737  140.086309618    67.1214   5  15   2.8297   2.4763   6.0014  -0.6759   1.2625  -2.4020   0.00    0.0
2019/12/15 00:06:06.000   36.103643972  140.086310701    67.6776   5  15   2.8298   2.4763   6.0012  -0.6765   1.2631  -2.4021   0.00    0.0
2019/12/15 00:06:07.000   36.103647202  140.086316158    67.1099   5  15   2.8299   2.4764   6.0009  -0.6771   1.2637  -2.4023   0.00    0.0
2019/12/15 00:06:08.000   36.103645490  140.086317757    66.9873   5  15   2.8299   2.4764   6.0007  -0.6777   1.2642  -2.4025   0.00    0.0
2019/12/15 00:06:09.000   36.103645726  140.086310739    67.3023   5  15   2.8300   2.4765   6.0005  -0.6783   1.2648  -2.4027   0.00    0.0
2019/12/15 00:06:10.000   36.103645436  140.086313466    66.9648   5  15   2.8301   2.4765   6.0002  -0.6789   1.2654  -2.4029   0.00    0.0
2019/12/15 00:06:11.000   36.103649277  140.086323738    68.1868   5  15   2.8302   2.4766   6.0000  -0.6795   1.2660  -2.4031   0.00    0.0
2019/12/15 00:06:12.000   36.103645901  140.086316256    66.5431   5  15   2.8302   2.4766   5.9998  -0.6801   1.2665  -2.4032   0.00    0.0
2019/12/15 00:06:13.000   36.103640187  140.086317924    67.0553   5  15   2.8303   2.4767   5.9995  -0.6807   1.2671  -2.4034   0.00    0.0
2019/12/15 00:06:14.000   36.103637658  140.086315807    68.2645   5  15   2.8304   2.4767   5.9993  -0.6813   1.2677  -2.4036   0.00    0.0
2019/12/15 00:06:15.000   36.103640188  140.086324971    68.2651   5  15   2.8304   2.4768   5.9991  -0.6819   1.2682  -2.4038   0.00    0.0
2019/12/15 00:06:16.000   36.103639659  140.086309848    67.1354   5  15   2.8305   2.4768   5.9988  -0.6825   1.2688  -2.4040   0.00    0.0
2019/12/15 00:06:17.000   36.103634413  140.086313369    68.3932   5  15   2.8306   2.4769   5.9986  -0.6831   1.2694  -2.4041   0.00    0.0
2019/12/15 00:06:18.000   36.103640944  140.086314897    68.2422   5  15   2.8307   2.4769   5.9984  -0.6837   1.2699  -2.4043   0.00    0.0
2019/12/15 00:06:19.000   36.103639921  140.086323301    68.4511   5  15   2.8307   2.4770   5.9981  -0.6843   1.2705  -2.4045   0.00    0.0
2019/12/15 00:06:20.000   36.103639222  140.086316252    68.4264   5  15   2.8308   2.4770   5.9979  -0.6849   1.2711  -2.4047   0.00    0.0
2019/12/15 00:06:21.000   36.103640836  140.086316842    68.6274   5  15   2.8309   2.4771   5.9977  -0.6856   1.2716  -2.4049   0.00    0.0
2019/12/15 00:06:22.000   36.103640350  140.086321191    68.0423   5  15   2.8310   2.4771   5.9974  -0.6862   1.2722  -2.4051   0.00    0.0
2019/12/15 00:06:23.000   36.103639801  140.086316472    68.0317   5  15   2.8310   2.4772   5.9972  -0.6868   1.2728  -2.4052   0.00    0.0
2019/12/15 00:06:24.000   36.103638135  140.086311939    67.8897   5  15   2.8311   2.4772   5.9970  -0.6874   1.2733  -2.4054   0.00    0.0
2019/12/15 00:06:25.000   36.103645472  140.086315190    68.5710   5  15   2.8312   2.4773   5.9967  -0.6880   1.2739  -2.4056   0.00    0.0
2019/12/15 00:06:26.000   36.103637843  140.086316742    69.4607   5  15   2.8312   2.4773   5.9965  -0.6886   1.2745  -2.4058   0.00    0.0
2019/12/15 00:06:27.000   36.103640211  140.086314644    66.9441   5  15   2.8313   2.4774   5.9963  -0.6891   1.2750  -2.4060   0.00    0.0
2019/12/15 00:06:28.000   36.103644882  140.086312998    67.7275   5  15   2.8314   2.4774   5.9960  -0.6897   1.2756  -2.4061   0.00    0.0
2019/12/15 00:06:29.000   36.103641356  140.086318074    68.3974   5  15   2.8315   2.4775   5.9958  -0.6903   1.2762  -2.4063   0.00    0.0
2019/12/15 00:06:30.000   36.103643361  140.086314984    67.9278   5  15   2.8315   2.4776   5.9955  -0.6909   1.2767  -2.4065   0.00    0.0
2019/12/15 00:06:31.000   36.103640636  140.086319398    67.7718   5  15   2.8316   2.4776   5.9953  -0.6915   1.2773  -2.4067   0.00    0.0
2019/12/15 00:06:32.000   36.103634249  140.086317618    68.5135   5  15   2.8317   2.4777   5.9951  -0.6921   1.2779  -2.4069   0.00    0.0
2019/12/15 00:06:33.000   36.103636550  140.086312972    67.8802   5  15   2.8318   2.4777   5.9948  -0.6927   1.2784  -2.4070   0.00    0.0
2019/12/15 00:06:34.000   36.103641557  140.086314163    66.9916   5  15   2.8318   2.4778   5.9946  -0.6933   1.2790  -2.4072   0.00    0.0
2019/12/15 00:06:35.000   36.103638441  140.086313550    68.0629   5  15   2.8319   2.4778   5.9944  -0.6939   1.2795  -2.4074   0.00    0.0
2019/12/15 00:06:36.000   36.103629559  140.086313020    69.4301   5  15   2.8320   2.4779   5.9941  -0.6945   1.2801  -2.4076   0.00    0.0
2019/12/15 00:06:37.000   36.103632906  140.086309913    68.7305   5  15   2.8320   2.4779   5.9939  -0.6951   1.2807  -2.4077   0.00    0.0
2019/12/15 00:06:38.000   36.103635966  140.086311536    68.6334   5  15   2.8321   2.4780   5.9937  -0.6957   1.2812  -2.4079   0.00    0.0
2019/12/15 00:06:39.000   36.103633787  140.086312646    68.5874   5  15   2.8322   2.4780   5.9934  -0.6963   1.2818  -2.4081   0.00    0.0
2019/12/15 00:06:40.000   36.103636450  140.086312474    67.7599   5  15   2.8323   2.4781   5.9932  -0.6969   1.2824  -2.4083   0.00    0.0
2019/12/15 00:06:41.000   36.103638301  140.086311003    68.5441   5  15   2.8323   2.4781   5.9929  -0.6975   1.2829  -2.4085   0.00    0.0
2019/12/15 00:06:42.000   36.103636288  140.086313072    69.3831   5  15   2.8324   2.4782   5.9927  -0.6981   1.2835  -2.4086   0.00    0.0
2019/12/15 00:06:43.000   36.103640000  140.086310803    69.1884   5  15   2.8325   2.4782   5.9925  -0.6987   1.2840  -2.4088   0.00    0.0
2019/12/15 00:06:44.000   36.103637437  140.086311362    68.8185   5  15   2.8326   2.4783   5.9922  -0.6993   1.2846  -2.4090   0.00    0.0
2019/12/15 00:06:45.000   36.103642431  140.086315152    68.2413   5  15   2.8326   2.4783   5.9920  -0.6999   1.2851  -2.4092   0.00    0.0
2019/12/15 00:06:46.000   36.103641947  140.086309577    68.9418   5  15   2.8327   2.4784   5.9918  -0.7004   1.2857  -2.4094   0.00    0.0
2019/12/15 00:06:47.000   36.103641727  140.086316222    68.5279   5  15   2.8328   2.4785   5.9915  -0.7010   1.2863  -2.4095   0.00    0.0
2019/12/15 00:06:48.000   36.103649072  140.086315713    68.5425   5  15   2.8328   2.4785   5.9913  -0.7016   1.2868  -2.4097   0.00    0.0
2019/12/15 00:06:49.000   36.103642407  140.086312765    68.8397   5  15   2.8329   2.4786   5.9910  -0.7022   1.2874  -2.4099   0.00    0.0
2019/12/15 00:06:50.000   36.103642804  140.086314763    68.5150   5  15   2.8330   2.4786   5.9908  -0.7028   1.2879  -2.4101   0.00    0.0
2019/12/15 00:06:51.000   36.103650312  140.086310523    67.4226   5  15   2.8331   2.4787   5.9906  -0.7034   1.2885  -2.4102   0.00    0.0
2019/12/15 00:06:52.000   36.103647142  140.086311385    67.3393   5  15   2.8331   2.4787   5.9903  -0.7040   1.2890  -2.4104   0.00    0.0
2019/12/15 00:06:53.000   36.103645539  140.086312199    67.5053   5  15   2.8332   2.4788   5.9901  -0.7046   1.2896  -2.4106   0.00    0.0
2019/12/15 00:06:54.000   36.103646200  140.086319365    68.0407   5  15   2.8333   2.4788   5.9898  -0.7052   1.2902  -2.4108   0.00    0.0
2019/12/15 00:06:55.000   36.103642373  140.086317294    68.2300   5  15   2.8334   2.4789   5.9896  -0.7058   1.2907  -2.4110   0.00    0.0
2019/12/15 00:06:56.000   36.103641857  140.086313896    67.6822   5  15   2.8334   2.4789   5.9894  -0.7063   1.2913  -2.4111   0.00    0.0
2019/12/15 00:06:57.000   36.103650911  140.086309967    66.8863   5  15   2.8335   2.4790   5.9891  -0.7069   1.2918  -2.4113   0.00    0.0
2019/12/15 00:06:58.000   36.103647602  140.086314822    67.3772   5  15   2.8336   2.4790   5.9889  -0.7075   1.2924  -2.4115   0.00    0.0
2019/12/15 00:06:59.000   36.103645306  140.086314348    67.7157   5  15   2.8337   2.4791   5.9887  -0.7081   1.2929  -2.4117   0.00    0.0
2019/12/15 00:07:00.000   36.103645667  140.086311387    67.6385   5  15   2.8337   2.4792   5.9884  -0.7087   1.2935  -2.4118   0.00    0.0
2019/12/15 00:07:01.000   36.103646329  140.086312174    67.7357   5  15   2.8338   2.4792   5.9882  -0.7093   1.2940  -2.4120   0.00    0.0
2019/12/15 00:07:02.000   36.103643827  140.086308763    68.4322   5  15   2.8339   2.4793   5.9879  -0.7099   1.2946  -2.4122   0.00    0.0
2019/12/15 00:07:03.000   36.103647827  140.086307639    67.5543   5  15   2.8339   2.4793   5.9877  -0.7104   1.2951  -2.4124   0.00    0.0
