% program   : RTKLIB ver.2.4.2
% inp file  : ../../data/0627239Q.obs
% inp file  : ../../data/sept_2019239.nav
% inp file  : ../../data/2019239Q.l6
% obs start : 2019/08/27 16:00:02.0 UTC (week2068 230420.0s)
% obs end   : 2019/08/27 17:00:00.0 UTC (week2068 234018.0s)
% pos mode  : ssr2osr
% solution  : forward
% elev mask : 15.0 deg
% dynamics  : off
% tidecorr  : on
% tropo opt : off
% ephemeris : broadcast+ssr apc
% navi sys  : gps galileo qzss
% antenna1  : TRM59800.80     NONE  ( 0.0000  0.0000  0.0000)
%
% (lat/lon/height=WGS84/ellipsoidal,Q=1:fix,2:float,3:sbas,4:dgps,5:single,6:ppp,ns=# of satellites)
%  UTC                   latitude(deg) longitude(deg)  height(m)   Q  ns   sdn(m)   sde(m)   sdu(m)  sdne(m)  sdeu(m)  sdun(m) age(s)  ratio
2019/08/27 16:00:02.000   36.103642825  140.086340516    70.5563   5  10   4.9813   5.2838  15.2391   1.9776   0.8979  -7.1023   0.00    0.0
2019/08/27 16:00:03.000   36.103643783  140.086320742    69.8998   5  13   3.3603   3.4463  10.9362  -1.7667   1.7035  -3.9110   1.00    0.0
2019/08/27 16:00:04.000   36.103637307  140.086319139    70.3122   5  13   3.3602   3.4464  10.9362  -1.7672   1.7055  -3.9107   2.00    0.0
2019/08/27 16:00:05.000   36.103634765  140.086321120    72.4312   5  13   3.3601   3.4465  10.9362  -1.7678   1.7075  -3.9104   3.00    0.0
2019/08/27 16:00:06.000   36.103633657  140.086315098    73.5742   5  13   3.3600   3.4467  10.9362  -1.7684   1.7094  -3.9100   4.00    0.0
2019/08/27 16:00:07.000   36.103633654  140.086319577    74.5065   5  13   3.3599   3.4468  10.9362  -1.7689   1.7114  -3.9097   0.00    0.0
2019/08/27 16:00:08.000   36.103636832  140.086324583    72.0106   5  13   3.3598   3.4469  10.9363  -1.7695   1.7133  -3.9093   1.00    0.0
2019/08/27 16:00:09.000   36.103635613  140.086315022    71.0529   5  13   3.3597   3.4471  10.9363  -1.7701   1.7153  -3.9090   2.00    0.0
2019/08/27 16:00:10.000   36.103635871  140.086321059    70.2232   5  13   3.3596   3.4472  10.9363  -1.7706   1.7172  -3.9086   3.00    0.0
2019/08/27 16:00:11.000   36.103644438  140.086303732    69.6153   5  13   3.3595   3.4473  10.9363  -1.7712   1.7192  -3.9083   4.00    0.0
2019/08/27 16:00:12.000   36.103638255  140.086311051    70.0798   5  13   3.3594   3.4475  10.9363  -1.7718   1.7211  -3.9080   0.00    0.0
2019/08/27 16:00:13.000   36.103638587  140.086311297    71.7828   5  13   3.3592   3.4476  10.9363  -1.7723   1.7231  -3.9076   1.00    0.0
2019/08/27 16:00:14.000   36.103632641  140.086317652    71.9388   5  13   3.3591   3.4477  10.9364  -1.7729   1.7250  -3.9073   2.00    0.0
2019/08/27 16:00:15.000   36.103636355  140.086317953    70.5901   5  13   3.3590   3.4479  10.9364  -1.7734   1.7269  -3.9069   3.00    0.0
2019/08/27 16:00:16.000   36.103634824  140.086308050    71.0436   5  13   3.3589   3.4480  10.9364  -1.7740   1.7289  -3.9066   4.00    0.0
2019/08/27 16:00:17.000   36.103634594  140.086310163    71.8450   5  13   3.3588   3.4482  10.9364  -1.7746   1.7308  -3.9063   0.00    0.0
2019/08/27 16:00:18.000   36.103638049  140.086318367    72.9236   5  13   3.3587   3.4483  10.9364  -1.7751   1.7327  -3.9059   1.00    0.0
2019/08/27 16:00:19.000   36.103633046  140.086311005    71.5710   5  13   3.3586   3.4484  10.9364  -1.7757   1.7347  -3.9056   2.00    0.0
2019/08/27 16:00:20.000   36.103635796  140.086315395    70.8183   5  13   3.3585   3.4486  10.9364  -1.7763   1.7366  -3.9052   3.00    0.0
2019/08/27 16:00:21.000   36.103636207  140.086314981    72.0242   5  13   3.3584   3.4487  10.9365  -1.7768   1.7385  -3.9049   4.00    0.0
2019/08/27 16:00:22.000   36.103634213  140.086310821    72.0972   5  13   3.3583   3.4488  10.9365  -1.7774   1.7405  -3.9046   0.00    0.0
2019/08/27 16:00:23.000   36.103634658  140.086305634    71.5168   5  13   3.3582   3.4490  10.9365  -1.7780   1.7424  -3.9042   1.00    0.0
2019/08/27 16:00:24.000   36.103635197  140.086324534    71.4862   5  13   3.3581   3.4491  10.9365  -1.7785   1.7443  -3.9039   2.00    0.0
2019/08/27 16:00:25.000   36.103634526  140.086317841    69.6408   5  13   3.3580   3.4493  10.9365  -1.7791   1.7462  -3.9036   3.00    0.0
2019/08/27 16:00:26.000   36.103633052  140.086318427    72.8268   5  13   3.3579   3.4494  10.9365  -1.7796   1.7481  -3.9032   4.00    0.0
2019/08/27 16:00:27.000   36.103639388  140.086318403    72.7803   5  13   3.3578   3.4495  10.9365  -1.7802   1.7501  -3.9029   0.00    0.0
2019/08/27 16:00:28.000   36.103637633  140.086319558    71.3047   5  13   3.3577   3.4497  10.9365  -1.7808   1.7520  -3.9025   1.00    0.0
2019/08/27 16:00:29.000   36.103629632  140.086320576    72.9505   5  13   3.3575   3.4498  10.9365  -1.7813   1.7539  -3.9022   2.00    0.0
2019/08/27 16:00:30.000   36.103635260  140.086317558    71.1606   5  13   3.3574   3.4499  10.9365  -1.7819   1.7558  -3.9019   3.00    0.0
2019/08/27 16:00:31.000   36.103627742  140.086316771    71.6740   5  13   3.3573   3.4501  10.9365  -1.7824   1.7577  -3.9015   4.00    0.0
2019/08/27 16:00:32.000   36.103632655  140.086318249    70.5955   5  13   3.3572   3.4502  10.9366  -1.7830   1.7596  -3.9012   0.00    0.0
2019/08/27 16:00:33.000   36.103628745  140.086313782    70.9118   5  13   3.3571   3.4504  10.9366  -1.7836   1.7615  -3.9009   1.00    0.0
2019/08/27 16:00:34.000   36.103636295  140.086307509    69.6055   5  13   3.3570   3.4505  10.9366  -1.7841   1.7634  -3.9005   2.00    0.0
2019/08/27 16:00:35.000   36.103638619  140.086313539    72.3128   5  13   3.3569   3.4506  10.9366  -1.7847   1.7653  -3.9002   3.00    0.0
2019/08/27 16:00:36.000   36.103633828  140.086311330    71.8984   5  13   3.3568   3.4508  10.9366  -1.7852   1.7672  -3.8999   4.00    0.0
2019/08/27 16:00:37.000   36.103631433  140.086312428    71.5676   5  13   3.3567   3.4509  10.9366  -1.7858   1.7691  -3.8995   0.00    0.0
2019/08/27 16:00:38.000   36.103640095  140.086317465    69.2905   5  13   3.3566   3.4511  10.9366  -1.7864   1.7710  -3.8992   1.00    0.0
2019/08/27 16:00:39.000   36.103639504  140.086310852    73.0899   5  13   3.3565   3.4512  10.9366  -1.7869   1.7729  -3.8989   2.00    0.0
2019/08/27 16:00:40.000   36.103634187  140.086309928    71.9784   5  13   3.3564   3.4513  10.9366  -1.7875   1.7748  -3.8985   3.00    0.0
2019/08/27 16:00:41.000   36.103637618  140.086314630    70.5131   5  13   3.3563   3.4515  10.9366  -1.7880   1.7767  -3.8982   4.00    0.0
2019/08/27 16:00:42.000   36.103636998  140.086310337    72.5236   5  13   3.3562   3.4516  10.9366  -1.7886   1.7786  -3.8979   0.00    0.0
2019/08/27 16:00:43.000   36.103631232  140.086316905    71.7373   5  13   3.3561   3.4518  10.9366  -1.7892   1.7805  -3.8975   1.00    0.0
2019/08/27 16:00:44.000   36.103634412  140.086309026    72.9000   5  13   3.3560   3.4519  10.9366  -1.7897   1.7823  -3.8972   2.00    0.0
2019/08/27 16:00:45.000   36.103634295  140.086316968    69.8950   5  13   3.3559   3.4520  10.9366  -1.7903   1.7842  -3.8969   3.00    0.0
2019/08/27 16:00:46.000   36.103635747  140.086316179    71.7334   5  13   3.3558   3.4522  10.9366  -1.7908   1.7861  -3.8966   4.00    0.0
2019/08/27 16:00:47.000   36.103636929  140.086312938    73.0917   5  13   3.3557   3.4523  10.9366  -1.7914   1.7880  -3.8962   0.00    0.0
2019/08/27 16:00:48.000   36.103643514  140.086321258    72.6533   5  13   3.3556   3.4525  10.9366  -1.7919   1.7899  -3.8959   1.00    0.0
2019/08/27 16:00:49.000   36.103641606  140.086319537    70.6406   5  13   3.3555   3.4526  10.9366  -1.7925   1.7917  -3.8956   2.00    0.0
2019/08/27 16:00:50.000   36.103632757  140.086320438    71.2211   5  13   3.3554   3.4527  10.9366  -1.7930   1.7936  -3.8952   3.00    0.0
2019/08/27 16:00:51.000   36.103636868  140.086311219    70.3043   5  13   3.3553   3.4529  10.9366  -1.7936   1.7955  -3.8949   4.00    0.0
2019/08/27 16:00:52.000   36.103641915  140.086312102    69.5189   5  13   3.3552   3.4530  10.9366  -1.7942   1.7974  -3.8946   0.00    0.0
2019/08/27 16:00:53.000   36.103638524  140.086311182    72.3689   5  13   3.3551   3.4532  10.9366  -1.7947   1.7992  -3.8943   1.00    0.0
2019/08/27 16:00:54.000   36.103641696  140.086313720    69.5812   5  13   3.3550   3.4533  10.9366  -1.7953   1.8011  -3.8939   2.00    0.0
2019/08/27 16:00:55.000   36.103638296  140.086318507    73.4127   5  13   3.3549   3.4535  10.9366  -1.7958   1.8029  -3.8936   3.00    0.0
2019/08/27 16:00:56.000   36.103632021  140.086317417    70.4625   5  13   3.3548   3.4536  10.9366  -1.7964   1.8048  -3.8933   4.00    0.0
2019/08/27 16:00:57.000   36.103636037  140.086311761    70.5034   5  13   3.3547   3.4537  10.9366  -1.7969   1.8067  -3.8929   0.00    0.0
2019/08/27 16:00:58.000   36.103636866  140.086313241    72.6848   5  13   3.3546   3.4539  10.9366  -1.7975   1.8085  -3.8926   1.00    0.0
2019/08/27 16:00:59.000   36.103639535  140.086322906    72.3517   5  13   3.3545   3.4540  10.9366  -1.7980   1.8104  -3.8923   2.00    0.0
2019/08/27 16:01:00.000   36.103637261  140.086319005    69.5562   5  13   3.3544   3.4542  10.9365  -1.7986   1.8122  -3.8920   3.00    0.0
2019/08/27 16:01:01.000   36.103637348  140.086321154    69.6694   5  13   3.3543   3.4543  10.9365  -1.7992   1.8141  -3.8916   4.00    0.0
2019/08/27 16:01:02.000   36.103637711  140.086318735    70.7882   5  13   3.3542   3.4545  10.9365  -1.7997   1.8160  -3.8913   0.00    0.0
2019/08/27 16:01:03.000   36.103636378  140.086317394    71.1224   5  13   3.3541   3.4546  10.9365  -1.8003   1.8178  -3.8910   1.00    0.0
2019/08/27 16:01:04.000   36.103638138  140.086320093    72.7449   5  13   3.3540   3.4547  10.9365  -1.8008   1.8197  -3.8907   2.00    0.0
2019/08/27 16:01:05.000   36.103640554  140.086315686    70.6580   5  13   3.3539   3.4549  10.9365  -1.8014   1.8215  -3.8903   3.00    0.0
2019/08/27 16:01:06.000   36.103637017  140.086319128    71.5488   5  13   3.3538   3.4550  10.9365  -1.8019   1.8234  -3.8900   4.00    0.0
2019/08/27 16:01:07.000   36.103636307  140.086312498    71.8011   5  13   3.3537   3.4552  10.9365  -1.8025   1.8252  -3.8897   0.00    0.0
2019/08/27 16:01:08.000   36.103642333  140.086309007    71.1913   5  13   3.3536   3.4553  10.9365  -1.8030   1.8270  -3.8894   1.00    0.0
2019/08/27 16:01:09.000   36.103641572  140.086319545    70.4590   5  13   3.3535   3.4555  10.9365  -1.8036   1.8289  -3.8891   2.00    0.0
2019/08/27 16:01:10.000   36.103640070  140.086312498    70.4936   5  13   3.3534   3.4556  10.9364  -1.8041   1.8307  -3.8887   3.00    0.0
2019/08/27 16:01:11.000   36.103637386  140.086316094    71.2589   5  13   3.3533   3.4558  10.9364  -1.8047   1.8326  -3.8884   4.00    0.0
2019/08/27 16:01:12.000   36.103634634  140.086321443    70.2656   5  13   3.3532   3.4559  10.9364  -1.8052   1.8344  -3.8881   0.00    0.0
2019/08/27 16:01:13.000   36.103639271  140.086315544    71.4163   5  13   3.3531   3.4560  10.9364  -1.8058   1.8362  -3.8878   1.00    0.0
2019/08/27 16:01:14.000   36.103636121  140.086316054    70.3027   5  13   3.3530   3.4562  10.9364  -1.8063   1.8381  -3.8874   2.00    0.0
2019/08/27 16:01:15.000   36.103638919  140.086314193    70.0638   5  13   3.3529   3.4563  10.9364  -1.8069   1.8399  -3.8871   3.00    0.0
2019/08/27 16:01:16.000   36.103632245  140.086320458    71.8209   5  13   3.3528   3.4565  10.9364  -1.8074   1.8417  -3.8868   4.00    0.0
2019/08/27 16:01:17.000   36.103635450  140.086314463    71.1558   5  13   3.3527   3.4566  10.9363  -1.8080   1.8436  -3.8865   0.00    0.0
2019/08/27 16:01:18.000   36.103635808  140.086314340    70.9356   5  13   3.3526   3.4568  10.9363  -1.8085   1.8454  -3.8862   1.00    0.0
2019/08/27 16:01:19.000   36.103636106  140.086316540    71.1086   5  13   3.3525   3.4569  10.9363  -1.8091   1.8472  -3.8858   2.00    0.0
2019/08/27 16:01:20.000   36.103638822  140.086310671    69.0169   5  13   3.3524   3.4571  10.9363  -1.8096   1.8490  -3.8855   3.00    0.0
2019/08/27 16:01:21.000   36.103634289  140.086316229    72.0754   5  13   3.3523   3.4572  10.9363  -1.8102   1.8509  -3.8852   4.00    0.0
2019/08/27 16:01:22.000   36.103632444  140.086318028    70.8159   5  13   3.3522   3.4574  10.9363  -1.8107   1.8527  -3.8849   0.00    0.0
2019/08/27 16:01:23.000   36.103635085  140.086312628    70.3901   5  13   3.3521   3.4575  10.9362  -1.8113   1.8545  -3.8846   1.00    0.0
2019/08/27 16:01:24.000   36.103639302  140.086311632    70.6595   5  13   3.3520   3.4576  10.9362  -1.8118   1.8563  -3.8843   2.00    0.0
2019/08/27 16:01:25.000   36.103637327  140.086314719    70.8876   5  13   3.3519   3.4578  10.9362  -1.8124   1.8581  -3.8839   3.00    0.0
2019/08/27 16:01:26.000   36.103635781  140.086311508    70.9849   5  13   3.3518   3.4579  10.9362  -1.8129   1.8599  -3.8836   4.00    0.0
2019/08/27 16:01:27.000   36.103635637  140.086319068    69.5535   5  13   3.3517   3.4581  10.9362  -1.8135   1.8618  -3.8833   0.00    0.0
2019/08/27 16:01:28.000   36.103639577  140.086320249    68.7588   5  13   3.3516   3.4582  10.9361  -1.8140   1.8636  -3.8830   1.00    0.0
2019/08/27 16:01:29.000   36.103637315  140.086312173    71.3507   5  13   3.3515   3.4584  10.9361  -1.8146   1.8654  -3.8827   2.00    0.0
2019/08/27 16:01:30.000   36.103631266  140.086314282    72.3252   5  13   3.3514   3.4585  10.9361  -1.8151   1.8672  -3.8824   3.00    0.0
2019/08/27 16:01:31.000   36.103638697  140.086317612    68.8452   5  13   3.3513   3.4587  10.9361  -1.8157   1.8690  -3.8820   4.00    0.0
2019/08/27 16:01:32.000   36.103639385  140.086316070    69.4325   5  13   3.3512   3.4588  10.9361  -1.8162   1.8708  -3.8817   0.00    0.0
2019/08/27 16:01:33.000   36.103639131  140.086317169    70.4748   5  13   3.3511   3.4590  10.9360  -1.8168   1.8726  -3.8814   1.00    0.0
2019/08/27 16:01:34.000   36.103633735  140.086321729    69.8615   5  13   3.3510   3.4591  10.9360  -1.8173   1.8744  -3.8811   2.00    0.0
2019/08/27 16:01:35.000   36.103636194  140.086325369    70.0592   5  13   3.3509   3.4593  10.9360  -1.8178   1.8762  -3.8808   3.00    0.0
2019/08/27 16:01:36.000   36.103633639  140.086320293    70.8397   5  13   3.3508   3.4594  10.9360  -1.8184   1.8780  -3.8805   4.00    0.0
2019/08/27 16:01:37.000   36.103631402  140.086324537    69.8272   5  13   3.3507   3.4596  10.9359  -1.8189   1.8798  -3.8802   0.00    0.0
2019/08/27 16:01:38.000   36.103630369  140.086317292    72.8891   5  13   3.3506   3.4597  10.9359  -1.8195   1.8816  -3.8798   1.00    0.0
2019/08/27 16:01:39.000   36.103636512  140.086323909    70.8023   5  13   3.3506   3.4599  10.9359  -1.8200   1.8834  -3.8795   2.00    0.0
2019/08/27 16:01:40.000   36.103637478  140.086319919    72.5822   5  13   3.3505   3.4600  10.9359  -1.8206   1.8852  -3.8792   3.00    0.0
2019/08/27 16:01:41.000   36.103640334  140.086320175    69.4599   5  13   3.3504   3.4602  10.9358  -1.8211   1.8870  -3.8789   4.00    0.0
2019/08/27 16:01:42.000   36.103636549  140.086320580    70.8795   5  13   3.3503   3.4603  10.9358  -1.8217   1.8888  -3.8786   0.00    0.0
2019/08/27 16:01:43.000   36.103631648  140.086323945    72.4698   5  13   3.3502   3.4605  10.9358  -1.8222   1.8905  -3.8783   1.00    0.0
2019/08/27 16:01:44.000   36.103634662  140.086325143    72.2668   5  13   3.3501   3.4606  10.9357  -1.8228   1.8923  -3.8780   2.00    0.0
2019/08/27 16:01:45.000   36.103636822  140.086324281    73.7779   5  13   3.3500   3.4608  10.9357  -1.8233   1.8941  -3.8777   3.00    0.0
2019/08/27 16:01:46.000   36.103634332  140.086321228    70.1774   5  13   3.3499   3.4609  10.9357  -1.8238   1.8959  -3.8774   4.00    0.0
2019/08/27 16:01:47.000   36.103637480  140.086316034    71.6080   5  13   3.3498   3.4611  10.9357  -1.8244   1.8977  -3.8770   0.00    0.0
2019/08/27 16:01:48.000   36.103634188  140.086322848    68.8246   5  13   3.3497   3.4612  10.9356  -1.8249   1.8995  -3.8767   1.00    0.0
2019/08/27 16:01:49.000   36.103633973  140.086324913    70.9249   5  13   3.3496   3.4614  10.9356  -1.8255   1.9012  -3.8764   2.00    0.0
2019/08/27 16:01:50.000   36.103632693  140.086315075    70.7694   5  13   3.3495   3.4615  10.9356  -1.8260   1.9030  -3.8761   3.00    0.0
2019/08/27 16:01:51.000   36.103636235  140.086319022    70.6702   5  13   3.3494   3.4617  10.9355  -1.8266   1.9048  -3.8758   4.00    0.0
2019/08/27 16:01:52.000   36.103634744  140.086323239    74.2394   5  13   3.3493   3.4618  10.9355  -1.8271   1.9066  -3.8755   0.00    0.0
2019/08/27 16:01:53.000   36.103628430  140.086322727    71.1539   5  13   3.3492   3.4620  10.9355  -1.8276   1.9083  -3.8752   1.00    0.0
2019/08/27 16:01:54.000   36.103634552  140.086322616    71.4517   5  13   3.3491   3.4621  10.9354  -1.8282   1.9101  -3.8749   2.00    0.0
2019/08/27 16:01:55.000   36.103630229  140.086314493    70.8707   5  13   3.3490   3.4623  10.9354  -1.8287   1.9119  -3.8746   3.00    0.0
2019/08/27 16:01:56.000   36.103639773  140.086319012    69.4935   5  13   3.3490   3.4624  10.9354  -1.8293   1.9136  -3.8743   4.00    0.0
2019/08/27 16:01:57.000   36.103641456  140.086320759    71.4086   5  13   3.3489   3.4626  10.9353  -1.8298   1.9154  -3.8740   0.00    0.0
2019/08/27 16:01:58.000   36.103634392  140.086317490    72.0130   5  13   3.3488   3.4627  10.9353  -1.8304   1.9172  -3.8737   1.00    0.0
2019/08/27 16:01:59.000   36.103639143  140.086321246    70.3195   5  13   3.3487   3.4629  10.9352  -1.8309   1.9189  -3.8734   2.00    0.0
2019/08/27 16:02:00.000   36.103634395  140.086319374    70.4544   5  13   3.3486   3.4630  10.9352  -1.8314   1.9207  -3.8731   3.00    0.0
2019/08/27 16:02:01.000   36.103632283  140.086321928    73.0533   5  13   3.3485   3.4632  10.9352  -1.8320   1.9225  -3.8727   4.00    0.0
2019/08/27 16:02:02.000   36.103637874  140.086330420    71.5015   5  13   3.3484   3.4634  10.9351  -1.8325   1.9242  -3.8724   0.00    0.0
2019/08/27 16:02:03.000   36.103638270  140.086324988    71.9533   5  13   3.3483   3.4635  10.9351  -1.8331   1.9260  -3.8721   1.00    0.0
2019/08/27 16:02:04.000   36.103633182  140.086321878    72.2044   5  13   3.3482   3.4637  10.9351  -1.8336   1.9277  -3.8718   2.00    0.0
2019/08/27 16:02:05.000   36.103638995  140.086326550    73.7881   5  13   3.3481   3.4638  10.9350  -1.8341   1.9295  -3.8715   3.00    0.0
2019/08/27 16:02:06.000   36.103640868  140.086319345    71.9284   5  13   3.3480   3.4640  10.9350  -1.8347   1.9313  -3.8712   4.00    0.0
2019/08/27 16:02:07.000   36.103633399  140.086320660    74.4742   5  13   3.3479   3.4641  10.9349  -1.8352   1.9330  -3.8709   0.00    0.0
2019/08/27 16:02:08.000   36.103631488  140.086325739    71.9223   5  13   3.3479   3.4643  10.9349  -1.8358   1.9348  -3.8706   1.00    0.0
2019/08/27 16:02:09.000   36.103635561  140.086322349    70.1369   5  13   3.3478   3.4644  10.9349  -1.8363   1.9365  -3.8703   2.00    0.0
2019/08/27 16:02:10.000   36.103633563  140.086321152    73.7179   5  13   3.3477   3.4646  10.9348  -1.8368   1.9383  -3.8700   3.00    0.0
2019/08/27 16:02:11.000   36.103631359  140.086331778    70.9877   5  13   3.3476   3.4647  10.9348  -1.8374   1.9400  -3.8697   4.00    0.0
2019/08/27 16:02:12.000   36.103634952  140.086315440    70.7455   5  13   3.3475   3.4649  10.9347  -1.8379   1.9418  -3.8694   0.00    0.0
2019/08/27 16:02:13.000   36.103638175  140.086323684    71.5809   5  13   3.3474   3.4650  10.9347  -1.8384   1.9435  -3.8691   1.00    0.0
2019/08/27 16:02:14.000   36.103632217  140.086328713    72.2955   5  13   3.3473   3.4652  10.9346  -1.8390   1.9452  -3.8688   2.00    0.0
2019/08/27 16:02:15.000   36.103636841  140.086321796    72.7735   5  13   3.3472   3.4654  10.9346  -1.8395   1.9470  -3.8685   3.00    0.0
2019/08/27 16:02:16.000   36.103635056  140.086326682    71.5601   5  13   3.3471   3.4655  10.9346  -1.8401   1.9487  -3.8682   4.00    0.0
2019/08/27 16:02:17.000   36.103637898  140.086320808    72.5276   5  13   3.3470   3.4657  10.9345  -1.8406   1.9505  -3.8679   0.00    0.0
2019/08/27 16:02:18.000   36.103639157  140.086326110    70.1491   5  13   3.3470   3.4658  10.9345  -1.8411   1.9522  -3.8676   1.00    0.0
2019/08/27 16:02:19.000   36.103636276  140.086325888    73.1072   5  13   3.3469   3.4660  10.9344  -1.8417   1.9539  -3.8673   2.00    0.0
2019/08/27 16:02:20.000   36.103633507  140.086333140    72.5676   5  13   3.3468   3.4661  10.9344  -1.8422   1.9557  -3.8670   3.00    0.0
2019/08/27 16:02:21.000   36.103633153  140.086323907    71.6166   5  13   3.3467   3.4663  10.9343  -1.8427   1.9574  -3.8667   4.00    0.0
2019/08/27 16:02:22.000   36.103634337  140.086324630    70.2963   5  13   3.3466   3.4664  10.9343  -1.8433   1.9591  -3.8664   0.00    0.0
2019/08/27 16:02:23.000   36.103636791  140.086324710    70.8665   5  13   3.3465   3.4666  10.9342  -1.8438   1.9609  -3.8661   1.00    0.0
2019/08/27 16:02:24.000   36.103631819  140.086329924    73.8273   5  13   3.3464   3.4668  10.9342  -1.8444   1.9626  -3.8658   2.00    0.0
2019/08/27 16:02:25.000   36.103635535  140.086325759    73.8471   5  13   3.3463   3.4669  10.9341  -1.8449   1.9643  -3.8655   3.00    0.0
2019/08/27 16:02:26.000   36.103637417  140.086324578    72.3192   5  13   3.3462   3.4671  10.9341  -1.8454   1.9660  -3.8652   4.00    0.0
2019/08/27 16:02:27.000   36.103628322  140.086323146    71.8830   5  13   3.3461   3.4672  10.9340  -1.8460   1.9678  -3.8649   0.00    0.0
2019/08/27 16:02:28.000   36.103636779  140.086328583    70.9007   5  13   3.3461   3.4674  10.9340  -1.8465   1.9695  -3.8646   1.00    0.0
2019/08/27 16:02:29.000   36.103640901  140.086326941    71.5971   5  13   3.3460   3.4675  10.9339  -1.8470   1.9712  -3.8644   2.00    0.0
2019/08/27 16:02:30.000   36.103634609  140.086321965    72.4414   5  13   3.3459   3.4677  10.9339  -1.8476   1.9729  -3.8641   3.00    0.0
2019/08/27 16:02:31.000   36.103636962  140.086322285    71.6615   5  13   3.3458   3.4679  10.9338  -1.8481   1.9747  -3.8638   4.00    0.0
2019/08/27 16:02:32.000   36.103638334  140.086330106    71.9330   5  13   3.3457   3.4680  10.9338  -1.8486   1.9764  -3.8635   0.00    0.0
2019/08/27 16:02:33.000   36.103639904  140.086321133    71.1304   5  13   3.3456   3.4682  10.9337  -1.8492   1.9781  -3.8632   1.00    0.0
2019/08/27 16:02:34.000   36.103639310  140.086318049    71.5641   5  13   3.3455   3.4683  10.9337  -1.8497   1.9798  -3.8629   2.00    0.0
2019/08/27 16:02:35.000   36.103637709  140.086322405    71.3348   5  13   3.3454   3.4685  10.9336  -1.8502   1.9815  -3.8626   3.00    0.0
2019/08/27 16:02:36.000   36.103636439  140.086324861    70.8844   5  13   3.3454   3.4687  10.9335  -1.8508   1.9832  -3.8623   4.00    0.0
2019/08/27 16:02:37.000   36.103641015  140.086317887    72.0890   5  13   3.3453   3.4688  10.9335  -1.8513   1.9850  -3.8620   0.00    0.0
2019/08/27 16:02:38.000   36.103645106  140.086314176    68.3505   5  13   3.3452   3.4690  10.9334  -1.8518   1.9867  -3.8617   1.00    0.0
2019/08/27 16:02:39.000   36.103636167  140.086321774    69.8225   5  13   3.3451   3.4691  10.9334  -1.8524   1.9884  -3.8614   2.00    0.0
2019/08/27 16:02:40.000   36.103637857  140.086320430    69.7702   5  13   3.3450   3.4693  10.9333  -1.8529   1.9901  -3.8611   3.00    0.0
2019/08/27 16:02:41.000   36.103639177  140.086317080    69.2386   5  13   3.3449   3.4695  10.9333  -1.8534   1.9918  -3.8608   4.00    0.0
2019/08/27 16:02:42.000   36.103639170  140.086319681    68.9583   5  13   3.3448   3.4696  10.9332  -1.8540   1.9935  -3.8605   0.00    0.0
2019/08/27 16:02:43.000   36.103642831  140.086309439    70.8333   5  13   3.3448   3.4698  10.9331  -1.8545   1.9952  -3.8603   1.00    0.0
2019/08/27 16:02:44.000   36.103637529  140.086322965    72.4026   5  13   3.3447   3.4699  10.9331  -1.8550   1.9969  -3.8600   2.00    0.0
2019/08/27 16:02:45.000   36.103642246  140.086319511    70.8994   5  13   3.3446   3.4701  10.9330  -1.8556   1.9986  -3.8597   3.00    0.0
2019/08/27 16:02:46.000   36.103641772  140.086328317    69.3123   5  13   3.3445   3.4703  10.9330  -1.8561   2.0003  -3.8594   4.00    0.0
2019/08/27 16:02:47.000   36.103639531  140.086318693    71.5596   5  13   3.3444   3.4704  10.9329  -1.8566   2.0020  -3.8591   0.00    0.0
2019/08/27 16:02:48.000   36.103640872  140.086312493    71.0208   5  13   3.3443   3.4706  10.9328  -1.8572   2.0037  -3.8588   1.00    0.0
2019/08/27 16:02:49.000   36.103636343  140.086326191    71.8648   5  13   3.3442   3.4707  10.9328  -1.8577   2.0054  -3.8585   2.00    0.0
2019/08/27 16:02:50.000   36.103639264  140.086316440    72.0317   5  13   3.3442   3.4709  10.9327  -1.8582   2.0071  -3.8582   3.00    0.0
2019/08/27 16:02:51.000   36.103639219  140.086314730    69.2161   5  13   3.3441   3.4711  10.9327  -1.8588   2.0088  -3.8579   4.00    0.0
2019/08/27 16:02:52.000   36.103637376  140.086318857    70.1524   5  13   3.3440   3.4712  10.9326  -1.8593   2.0105  -3.8577   0.00    0.0
2019/08/27 16:02:53.000   36.103635181  140.086314505    71.2656   5  13   3.3439   3.4714  10.9325  -1.8598   2.0122  -3.8574   1.00    0.0
2019/08/27 16:02:54.000   36.103636924  140.086318728    69.8073   5  13   3.3438   3.4715  10.9325  -1.8604   2.0139  -3.8571   2.00    0.0
2019/08/27 16:02:55.000   36.103643559  140.086310575    69.2757   5  13   3.3437   3.4717  10.9324  -1.8609   2.0156  -3.8568   3.00    0.0
2019/08/27 16:02:56.000   36.103640351  140.086313248    69.9947   5  13   3.3436   3.4719  10.9323  -1.8614   2.0172  -3.8565   4.00    0.0
2019/08/27 16:02:57.000   36.103635739  140.086311411    70.4721   5  13   3.3436   3.4720  10.9323  -1.8619   2.0189  -3.8562   0.00    0.0
2019/08/27 16:02:58.000   36.103632865  140.086313477    70.3517   5  13   3.3435   3.4722  10.9322  -1.8625   2.0206  -3.8559   1.00    0.0
2019/08/27 16:02:59.000   36.103640073  140.086317450    70.4664   5  13   3.3434   3.4723  10.9321  -1.8630   2.0223  -3.8557   2.00    0.0
2019/08/27 16:03:00.000   36.103637941  140.086316092    68.8726   5  13   3.3433   3.4725  10.9321  -1.8635   2.0240  -3.8554   3.00    0.0
2019/08/27 16:03:01.000   36.103637172  140.086310280    69.9998   5  13   3.3432   3.4727  10.9320  -1.8641   2.0257  -3.8551   4.00    0.0
2019/08/27 16:03:02.000   36.103637582  140.086318673    69.2665   5  13   3.3431   3.4728  10.9319  -1.8646   2.0273  -3.8548   0.00    0.0
2019/08/27 16:03:03.000   36.103640687  140.086317838    69.5095   5  13   3.3431   3.4730  10.9319  -1.8651   2.0290  -3.8545   1.00    0.0
2019/08/27 16:03:04.000   36.103633798  140.086314946    69.4876   5  13   3.3430   3.4732  10.9318  -1.8657   2.0307  -3.8542   2.00    0.0
2019/08/27 16:03:05.000   36.103638752  140.086318314    70.0046   5  13   3.3429   3.4733  10.9317  -1.8662   2.0324  -3.8540   3.00    0.0
2019/08/27 16:03:06.000   36.103635430  140.086316373    71.9526   5  13   3.3428   3.4735  10.9317  -1.8667   2.0341  -3.8537   4.00    0.0
2019/08/27 16:03:07.000   36.103642154  140.086328027    69.1361   5  13   3.3427   3.4737  10.9316  -1.8672   2.0357  -3.8534   0.00    0.0
2019/08/27 16:03:08.000   36.103639570  140.086315119    70.6108   5  13   3.3426   3.4738  10.9315  -1.8678   2.0374  -3.8531   1.00    0.0
2019/08/27 16:03:09.000   36.103638694  140.086319214    68.9450   5  13   3.3426   3.4740  10.9314  -1.8683   2.0391  -3.8528   2.00    0.0
2019/08/27 16:03:10.000   36.103631897  140.086320345    70.9936   5  13   3.3425   3.4741  10.9314  -1.8688   2.0407  -3.8526   3.00    0.0
2019/08/27 16:03:11.000   36.103636259  140.086319364    72.8053   5  13   3.3424   3.4743  10.9313  -1.8693   2.0424  -3.8523   4.00    0.0
2019/08/27 16:03:12.000   36.103637263  140.086323726    70.7843   5  13   3.3423   3.4745  10.9312  -1.8699   2.0441  -3.8520   0.00    0.0
2019/08/27 16:03:13.000   36.103637328  140.086320861    72.0437   5  13   3.3422   3.4746  10.9311  -1.8704   2.0458  -3.8517   1.00    0.0
2019/08/27 16:03:14.000   36.103633192  140.086315191    72.1362   5  13   3.3421   3.4748  10.9311  -1.8709   2.0474  -3.8514   2.00    0.0
2019/08/27 16:03:15.000   36.103638019  140.086318403    73.8053   5  13   3.3421   3.4750  10.9310  -1.8715   2.0491  -3.8512   3.00    0.0
2019/08/27 16:03:16.000   36.103638578  140.086327543    69.9073   5  13   3.3420   3.4751  10.9309  -1.8720   2.0507  -3.8509   4.00    0.0
2019/08/27 16:03:17.000   36.103634665  140.086316664    69.4912   5  13   3.3419   3.4753  10.9308  -1.8725   2.0524  -3.8506   0.00    0.0
2019/08/27 16:03:18.000   36.103637442  140.086319247    69.2823   5  13   3.3418   3.4755  10.9308  -1.8730   2.0541  -3.8503   1.00    0.0
2019/08/27 16:03:19.000   36.103631681  140.086323284    71.3980   5  13   3.3417   3.4756  10.9307  -1.8736   2.0557  -3.8500   2.00    0.0
2019/08/27 16:03:20.000   36.103638620  140.086314878    70.5828   5  13   3.3417   3.4758  10.9306  -1.8741   2.0574  -3.8498   3.00    0.0
2019/08/27 16:03:21.000   36.103637459  140.086308765    68.8521   5  13   3.3416   3.4760  10.9305  -1.8746   2.0591  -3.8495   4.00    0.0
2019/08/27 16:03:22.000   36.103629916  140.086321864    71.1160   5  13   3.3415   3.4761  10.9305  -1.8751   2.0607  -3.8492   0.00    0.0
2019/08/27 16:03:23.000   36.103633004  140.086322702    69.1778   5  13   3.3414   3.4763  10.9304  -1.8757   2.0624  -3.8489   1.00    0.0
2019/08/27 16:03:24.000   36.103634105  140.086321312    71.2729   5  13   3.3413   3.4765  10.9303  -1.8762   2.0640  -3.8487   2.00    0.0
2019/08/27 16:03:25.000   36.103633151  140.086320730    69.8242   5  13   3.3412   3.4766  10.9302  -1.8767   2.0657  -3.8484   3.00    0.0
2019/08/27 16:03:26.000   36.103638631  140.086315453    68.0976   5  13   3.3412   3.4768  10.9301  -1.8772   2.0673  -3.8481   4.00    0.0
2019/08/27 16:03:27.000   36.103640826  140.086310847    67.8520   5  13   3.3411   3.4770  10.9301  -1.8778   2.0690  -3.8478   0.00    0.0
2019/08/27 16:03:28.000   36.103632065  140.086320514    70.5503   5  13   3.3410   3.4771  10.9300  -1.8783   2.0706  -3.8476   1.00    0.0
2019/08/27 16:03:29.000   36.103631769  140.086322749    69.8245   5  13   3.3409   3.4773  10.9299  -1.8788   2.0723  -3.8473   2.00    0.0
2019/08/27 16:03:30.000   36.103632811  140.086314006    69.2220   5  13   3.3408   3.4775  10.9298  -1.8793   2.0739  -3.8470   3.00    0.0
2019/08/27 16:03:31.000   36.103639710  140.086322504    70.9190   5  13   3.3408   3.4776  10.9297  -1.8799   2.0756  -3.8467   4.00    0.0
2019/08/27 16:03:32.000   36.103641661  140.086317966    70.1892   5  13   3.3407   3.4778  10.9296  -1.8804   2.0772  -3.8465   0.00    0.0
2019/08/27 16:03:33.000   36.103633553  140.086325091    70.4769   5  13   3.3406   3.4780  10.9296  -1.8809   2.0788  -3.8462   1.00    0.0
2019/08/27 16:03:34.000   36.103633056  140.086319761    70.5726   5  13   3.3405   3.4781  10.9295  -1.8814   2.0805  -3.8459   2.00    0.0
2019/08/27 16:03:35.000   36.103633237  140.086315904    72.2755   5  13   3.3404   3.4783  10.9294  -1.8819   2.0821  -3.8457   3.00    0.0
2019/08/27 16:03:36.000   36.103638020  140.086317846    69.9400   5  13   3.3404   3.4785  10.9293  -1.8825   2.0838  -3.8454   4.00    0.0
2019/08/27 16:03:37.000   36.103635728  140.086321832    71.1185   5  13   3.3403   3.4786  10.9292  -1.8830   2.0854  -3.8451   0.00    0.0
2019/08/27 16:03:38.000   36.103630117  140.086324107    71.3631   5  13   3.3402   3.4788  10.9291  -1.8835   2.0870  -3.8448   1.00    0.0
2019/08/27 16:03:39.000   36.103637205  140.086316197    70.3422   5  13   3.3401   3.4790  10.9290  -1.8840   2.0887  -3.8446   2.00    0.0
2019/08/27 16:03:40.000   36.103629859  140.086319754    71.8376   5  13   3.3401   3.4791  10.9290  -1.8846   2.0903  -3.8443   3.00    0.0
2019/08/27 16:03:41.000   36.103634705  140.086313353    67.8294   5  13   3.3400   3.4793  10.9289  -1.8851   2.0920  -3.8440   4.00    0.0
2019/08/27 16:03:42.000   36.103634384  140.086318631    68.7161   5  13   3.3399   3.4795  10.9288  -1.8856   2.0936  -3.8438   0.00    0.0
2019/08/27 16:03:43.000   36.103636641  140.086315404    67.7635   5  13   3.3398   3.4797  10.9287  -1.8861   2.0952  -3.8435   1.00    0.0
2019/08/27 16:03:44.000   36.103633639  140.086315197    71.0379   5  13   3.3397   3.4798  10.9286  -1.8866   2.0968  -3.8432   2.00    0.0
2019/08/27 16:03:45.000   36.103633862  140.086322924    70.4788   5  13   3.3397   3.4800  10.9285  -1.8872   2.0985  -3.8430   3.00    0.0
2019/08/27 16:03:46.000   36.103637845  140.086322932    69.5242   5  13   3.3396   3.4802  10.9284  -1.8877   2.1001  -3.8427   4.00    0.0
2019/08/27 16:03:47.000   36.103639757  140.086317910    69.1827   5  13   3.3395   3.4803  10.9283  -1.8882   2.1017  -3.8424   0.00    0.0
2019/08/27 16:03:48.000   36.103630386  140.086310917    70.2215   5  13   3.3394   3.4805  10.9282  -1.8887   2.1034  -3.8422   1.00    0.0
2019/08/27 16:03:49.000   36.103638273  140.086316692    70.2733   5  13   3.3394   3.4807  10.9281  -1.8893   2.1050  -3.8419   2.00    0.0
2019/08/27 16:03:50.000   36.103638468  140.086319872    69.0309   5  13   3.3393   3.4808  10.9281  -1.8898   2.1066  -3.8416   3.00    0.0
2019/08/27 16:03:51.000   36.103638739  140.086316106    68.2443   5  13   3.3392   3.4810  10.9280  -1.8903   2.1082  -3.8414   4.00    0.0
2019/08/27 16:03:52.000   36.103630687  140.086315468    69.0929   5  13   3.3391   3.4812  10.9279  -1.8908   2.1099  -3.8411   0.00    0.0
2019/08/27 16:03:53.000   36.103634777  140.086319448    68.8981   5  13   3.3390   3.4814  10.9278  -1.8913   2.1115  -3.8408   1.00    0.0
2019/08/27 16:03:54.000   36.103634994  140.086319968    69.1294   5  13   3.3390   3.4815  10.9277  -1.8919   2.1131  -3.8406   2.00    0.0
2019/08/27 16:03:55.000   36.103633607  140.086317335    72.5454   5  13   3.3389   3.4817  10.9276  -1.8924   2.1147  -3.8403   3.00    0.0
2019/08/27 16:03:56.000   36.103640793  140.086313181    68.7697   5  13   3.3388   3.4819  10.9275  -1.8929   2.1163  -3.8400   4.00    0.0
2019/08/27 16:03:57.000   36.103638427  140.086317412    71.2575   5  13   3.3387   3.4820  10.9274  -1.8934   2.1179  -3.8398   0.00    0.0
2019/08/27 16:03:58.000   36.103639083  140.086314811    68.0987   5  13   3.3387   3.4822  10.9273  -1.8939   2.1196  -3.8395   1.00    0.0
2019/08/27 16:03:59.000   36.103632860  140.086318038    71.7746   5  13   3.3386   3.4824  10.9272  -1.8945   2.1212  -3.8392   2.00    0.0
2019/08/27 16:04:00.000   36.103636708  140.086316556    71.9714   5  13   3.3385   3.4826  10.9271  -1.8950   2.1228  -3.8390   3.00    0.0
2019/08/27 16:04:01.000   36.103638566  140.086317004    70.9775   5  13   3.3384   3.4827  10.9270  -1.8955   2.1244  -3.8387   4.00    0.0
2019/08/27 16:04:02.000   36.103636443  140.086319984    71.0788   5  13   3.3384   3.4829  10.9269  -1.8960   2.1260  -3.8385   0.00    0.0
2019/08/27 16:04:03.000   36.103631895  140.086322919    70.5176   5  13   3.3383   3.4831  10.9268  -1.8965   2.1276  -3.8382   1.00    0.0
2019/08/27 16:04:04.000   36.103631874  140.086321534    69.8034   5  13   3.3382   3.4832  10.9267  -1.8970   2.1292  -3.8379   2.00    0.0
2019/08/27 16:04:05.000   36.103639041  140.086316655    69.3783   5  13   3.3381   3.4834  10.9266  -1.8976   2.1308  -3.8377   3.00    0.0
2019/08/27 16:04:06.000   36.103638779  140.086315874    68.9189   5  13   3.3381   3.4836  10.9265  -1.8981   2.1325  -3.8374   4.00    0.0
2019/08/27 16:04:07.000   36.103645409  140.086313064    68.0019   5  13   3.3380   3.4838  10.9264  -1.8986   2.1341  -3.8372   0.00    0.0
2019/08/27 16:04:08.000   36.103639087  140.086320785    72.1414   5  13   3.3379   3.4839  10.9263  -1.8991   2.1357  -3.8369   1.00    0.0
2019/08/27 16:04:09.000   36.103637415  140.086315580    68.2014   5  13   3.3378   3.4841  10.9262  -1.8996   2.1373  -3.8366   2.00    0.0
2019/08/27 16:04:10.000   36.103633848  140.086323523    70.3276   5  13   3.3378   3.4843  10.9261  -1.9001   2.1389  -3.8364   3.00    0.0
2019/08/27 16:04:11.000   36.103633434  140.086320747    69.9067   5  13   3.3377   3.4845  10.9260  -1.9007   2.1405  -3.8361   4.00    0.0
2019/08/27 16:04:12.000   36.103636409  140.086316491    70.9186   5  13   3.3376   3.4846  10.9259  -1.9012   2.1421  -3.8359   0.00    0.0
2019/08/27 16:04:13.000   36.103638500  140.086325582    69.1008   5  13   3.3375   3.4848  10.9258  -1.9017   2.1437  -3.8356   1.00    0.0
2019/08/27 16:04:14.000   36.103636396  140.086325332    71.6880   5  13   3.3375   3.4850  10.9257  -1.9022   2.1453  -3.8353   2.00    0.0
2019/08/27 16:04:15.000   36.103640079  140.086317504    68.9351   5  13   3.3374   3.4852  10.9256  -1.9027   2.1469  -3.8351   3.00    0.0
2019/08/27 16:04:16.000   36.103639317  140.086315931    69.1069   5  13   3.3373   3.4853  10.9255  -1.9032   2.1485  -3.8348   4.00    0.0
2019/08/27 16:04:17.000   36.103636027  140.086315573    70.1548   5  13   3.3372   3.4855  10.9254  -1.9038   2.1501  -3.8346   0.00    0.0
2019/08/27 16:04:18.000   36.103630788  140.086320474    71.6796   5  13   3.3372   3.4857  10.9252  -1.9043   2.1516  -3.8343   1.00    0.0
2019/08/27 16:04:19.000   36.103637118  140.086320425    69.0867   5  13   3.3371   3.4859  10.9251  -1.9048   2.1532  -3.8341   2.00    0.0
2019/08/27 16:04:20.000   36.103639543  140.086324540    69.0177   5  13   3.3370   3.4860  10.9250  -1.9053   2.1548  -3.8338   3.00    0.0
2019/08/27 16:04:21.000   36.103638151  140.086320465    72.1722   5  13   3.3369   3.4862  10.9249  -1.9058   2.1564  -3.8336   4.00    0.0
2019/08/27 16:04:22.000   36.103638027  140.086322401    69.7088   5  13   3.3369   3.4864  10.9248  -1.9063   2.1580  -3.8333   0.00    0.0
2019/08/27 16:04:23.000   36.103641372  140.086316201    71.6359   5  13   3.3368   3.4866  10.9247  -1.9069   2.1596  -3.8330   1.00    0.0
2019/08/27 16:04:24.000   36.103637057  140.086327664    69.9557   5  13   3.3367   3.4867  10.9246  -1.9074   2.1612  -3.8328   2.00    0.0
2019/08/27 16:04:25.000   36.103638301  140.086322034    70.1771   5  13   3.3367   3.4869  10.9245  -1.9079   2.1628  -3.8325   3.00    0.0
2019/08/27 16:04:26.000   36.103641419  140.086321899    71.2560   5  13   3.3366   3.4871  10.9244  -1.9084   2.1644  -3.8323   4.00    0.0
2019/08/27 16:04:27.000   36.103643034  140.086326500    70.1688   5  13   3.3365   3.4873  10.9243  -1.9089   2.1659  -3.8320   0.00    0.0
2019/08/27 16:04:28.000   36.103636528  140.086321282    70.2094   5  13   3.3364   3.4874  10.9241  -1.9094   2.1675  -3.8318   1.00    0.0
2019/08/27 16:04:29.000   36.103641801  140.086320066    68.3731   5  13   3.3364   3.4876  10.9240  -1.9099   2.1691  -3.8315   2.00    0.0
2019/08/27 16:04:30.000   36.103634729  140.086325535    70.1206   5  13   3.3363   3.4878  10.9239  -1.9105   2.1707  -3.8313   3.00    0.0
2019/08/27 16:04:31.000   36.103638454  140.086325109    70.7552   5  13   3.3362   3.4880  10.9238  -1.9110   2.1723  -3.8310   4.00    0.0
2019/08/27 16:04:32.000   36.103641649  140.086317607    71.6946   5  13   3.3362   3.4882  10.9237  -1.9115   2.1739  -3.8308   0.00    0.0
2019/08/27 16:04:33.000   36.103635642  140.086321185    69.0613   5  13   3.3361   3.4883  10.9236  -1.9120   2.1754  -3.8305   1.00    0.0
2019/08/27 16:04:34.000   36.103637494  140.086320213    71.2405   5  13   3.3360   3.4885  10.9235  -1.9125   2.1770  -3.8303   2.00    0.0
2019/08/27 16:04:35.000   36.103636968  140.086322796    67.8368   5  13   3.3359   3.4887  10.9233  -1.9130   2.1786  -3.8300   3.00    0.0
2019/08/27 16:04:36.000   36.103636385  140.086321430    70.4492   5  13   3.3359   3.4889  10.9232  -1.9135   2.1802  -3.8298   4.00    0.0
2019/08/27 16:04:37.000   36.103633177  140.086325921    69.4037   5  13   3.3358   3.4890  10.9231  -1.9140   2.1817  -3.8295   0.00    0.0
2019/08/27 16:04:38.000   36.103639531  140.086323534    71.4701   5  13   3.3357   3.4892  10.9230  -1.9146   2.1833  -3.8293   1.00    0.0
2019/08/27 16:04:39.000   36.103631961  140.086318492    68.3676   5  13   3.3357   3.4894  10.9229  -1.9151   2.1849  -3.8290   2.00    0.0
2019/08/27 16:04:40.000   36.103639045  140.086318000    67.6074   5  13   3.3356   3.4896  10.9228  -1.9156   2.1865  -3.8288   3.00    0.0
2019/08/27 16:04:41.000   36.103636598  140.086317491    69.0451   5  13   3.3355   3.4898  10.9226  -1.9161   2.1880  -3.8285   4.00    0.0
2019/08/27 16:04:42.000   36.103630775  140.086321785    70.3156   5  13   3.3354   3.4899  10.9225  -1.9166   2.1896  -3.8283   0.00    0.0
2019/08/27 16:04:43.000   36.103638232  140.086322072    68.8914   5  13   3.3354   3.4901  10.9224  -1.9171   2.1912  -3.8280   1.00    0.0
2019/08/27 16:04:44.000   36.103637199  140.086315944    70.1843   5  13   3.3353   3.4903  10.9223  -1.9176   2.1927  -3.8278   2.00    0.0
2019/08/27 16:04:45.000   36.103640208  140.086318754    69.5810   5  13   3.3352   3.4905  10.9222  -1.9181   2.1943  -3.8275   3.00    0.0
2019/08/27 16:04:46.000   36.103638379  140.086320565    69.7234   5  13   3.3352   3.4907  10.9220  -1.9187   2.1959  -3.8273   4.00    0.0
2019/08/27 16:04:47.000   36.103643094  140.086319076    68.8210   5  13   3.3351   3.4908  10.9219  -1.9192   2.1974  -3.8271   0.00    0.0
2019/08/27 16:04:48.000   36.103634399  140.086321410    70.0057   5  13   3.3350   3.4910  10.9218  -1.9197   2.1990  -3.8268   1.00    0.0
2019/08/27 16:04:49.000   36.103634789  140.086325290    70.3220   5  13   3.3350   3.4912  10.9217  -1.9202   2.2006  -3.8266   2.00    0.0
2019/08/27 16:04:50.000   36.103629572  140.086322938    70.2963   5  13   3.3349   3.4914  10.9215  -1.9207   2.2021  -3.8263   3.00    0.0
2019/08/27 16:04:51.000   36.103634329  140.086322903    71.8679   5  13   3.3348   3.4916  10.9214  -1.9212   2.2037  -3.8261   4.00    0.0
2019/08/27 16:04:52.000   36.103633920  140.086325618    70.4300   5  13   3.3347   3.4917  10.9213  -1.9217   2.2052  -3.8258   0.00    0.0
2019/08/27 16:04:53.000   36.103642402  140.086322657    69.8198   5  13   3.3347   3.4919  10.9212  -1.9222   2.2068  -3.8256   1.00    0.0
2019/08/27 16:04:54.000   36.103634123  140.086321471    71.4814   5  13   3.3346   3.4921  10.9210  -1.9227   2.2084  -3.8253   2.00    0.0
2019/08/27 16:04:55.000   36.103634856  140.086328085    71.8777   5  13   3.3345   3.4923  10.9209  -1.9233   2.2099  -3.8251   3.00    0.0
2019/08/27 16:04:56.000   36.103633643  140.086320895    71.7564   5  13   3.3345   3.4925  10.9208  -1.9238   2.2115  -3.8249   4.00    0.0
2019/08/27 16:04:57.000   36.103632839  140.086321483    70.1503   5  13   3.3344   3.4926  10.9207  -1.9243   2.2130  -3.8246   0.00    0.0
2019/08/27 16:04:58.000   36.103638621  140.086320078    70.5077   5  13   3.3343   3.4928  10.9205  -1.9248   2.2146  -3.8244   1.00    0.0
2019/08/27 16:04:59.000   36.103639886  140.086322709    68.8231   5  13   3.3343   3.4930  10.9204  -1.9253   2.2161  -3.8241   2.00    0.0
2019/08/27 16:05:00.000   36.103641251  140.086319357    68.9357   5  13   3.3342   3.4932  10.9203  -1.9258   2.2177  -3.8239   3.00    0.0
2019/08/27 16:05:01.000   36.103635815  140.086320835    70.5560   5  13   3.3341   3.4934  10.9202  -1.9263   2.2192  -3.8237   4.00    0.0
2019/08/27 16:05:02.000   36.103639225  140.086323682    71.6319   5  13   3.3341   3.4935  10.9200  -1.9268   2.2208  -3.8234   0.00    0.0
2019/08/27 16:05:03.000   36.103633218  140.086325359    70.3436   5  13   3.3340   3.4937  10.9199  -1.9273   2.2223  -3.8232   1.00    0.0
2019/08/27 16:05:04.000   36.103635476  140.086321144    69.9784   5  13   3.3339   3.4939  10.9198  -1.9278   2.2239  -3.8229   2.00    0.0
2019/08/27 16:05:05.000   36.103628823  140.086317627    69.0709   5  13   3.3339   3.4941  10.9196  -1.9283   2.2254  -3.8227   3.00    0.0
2019/08/27 16:05:06.000   36.103639273  140.086315417    68.0645   5  13   3.3338   3.4943  10.9195  -1.9289   2.2270  -3.8225   4.00    0.0
2019/08/27 16:05:07.000   36.103638777  140.086319318    67.3212   5  13   3.3337   3.4945  10.9194  -1.9294   2.2285  -3.8222   0.00    0.0
2019/08/27 16:05:08.000   36.103636863  140.086316030    71.1441   5  13   3.3337   3.4946  10.9192  -1.9299   2.2301  -3.8220   1.00    0.0
2019/08/27 16:05:09.000   36.103631295  140.086326961    67.1592   5  13   3.3336   3.4948  10.9191  -1.9304   2.2316  -3.8218   2.00    0.0
2019/08/27 16:05:10.000   36.103638537  140.086323187    69.7776   5  13   3.3335   3.4950  10.9190  -1.9309   2.2331  -3.8215   3.00    0.0
2019/08/27 16:05:11.000   36.103635426  140.086323489    68.0864   5  13   3.3335   3.4952  10.9188  -1.9314   2.2347  -3.8213   4.00    0.0
2019/08/27 16:05:12.000   36.103630572  140.086327017    71.8470   5  13   3.3334   3.4954  10.9187  -1.9319   2.2362  -3.8210   0.00    0.0
2019/08/27 16:05:13.000   36.103637180  140.086324850    69.2935   5  13   3.3333   3.4956  10.9186  -1.9324   2.2378  -3.8208   1.00    0.0
2019/08/27 16:05:14.000   36.103632496  140.086323715    71.3744   5  13   3.3333   3.4957  10.9184  -1.9329   2.2393  -3.8206   2.00    0.0
2019/08/27 16:05:15.000   36.103630582  140.086323749    71.7904   5  13   3.3332   3.4959  10.9183  -1.9334   2.2408  -3.8203   3.00    0.0
2019/08/27 16:05:16.000   36.103630222  140.086324340    72.4013   5  13   3.3331   3.4961  10.9182  -1.9339   2.2424  -3.8201   4.00    0.0
2019/08/27 16:05:17.000   36.103637999  140.086324370    71.2991   5  13   3.3331   3.4963  10.9180  -1.9344   2.2439  -3.8199   0.00    0.0
2019/08/27 16:05:18.000   36.103638384  140.086319258    72.2391   5  13   3.3330   3.4965  10.9179  -1.9349   2.2455  -3.8196   1.00    0.0
2019/08/27 16:05:19.000   36.103637009  140.086322442    71.0729   5  13   3.3329   3.4967  10.9177  -1.9354   2.2470  -3.8194   2.00    0.0
2019/08/27 16:05:20.000   36.103635967  140.086318795    70.6005   5  13   3.3329   3.4969  10.9176  -1.9360   2.2485  -3.8192   3.00    0.0
2019/08/27 16:05:21.000   36.103640543  140.086322694    69.8592   5  13   3.3328   3.4970  10.9175  -1.9365   2.2500  -3.8189   4.00    0.0
2019/08/27 16:05:22.000   36.103630808  140.086321586    71.2673   5  13   3.3327   3.4972  10.9173  -1.9370   2.2516  -3.8187   0.00    0.0
2019/08/27 16:05:23.000   36.103639656  140.086322693    69.8268   5  13   3.3327   3.4974  10.9172  -1.9375   2.2531  -3.8185   1.00    0.0
2019/08/27 16:05:24.000   36.103638617  140.086325178    71.1624   5  13   3.3326   3.4976  10.9170  -1.9380   2.2546  -3.8182   2.00    0.0
2019/08/27 16:05:25.000   36.103634526  140.086324523    69.8958   5  13   3.3325   3.4978  10.9169  -1.9385   2.2562  -3.8180   3.00    0.0
2019/08/27 16:05:26.000   36.103635970  140.086318510    68.0342   5  13   3.3325   3.4980  10.9168  -1.9390   2.2577  -3.8178   4.00    0.0
2019/08/27 16:05:27.000   36.103636065  140.086317026    68.1951   5  13   3.3324   3.4982  10.9166  -1.9395   2.2592  -3.8176   0.00    0.0
2019/08/27 16:05:28.000   36.103637615  140.086311848    70.4911   5  13   3.3324   3.4983  10.9165  -1.9400   2.2608  -3.8173   1.00    0.0
2019/08/27 16:05:29.000   36.103636739  140.086315698    68.9731   5  13   3.3323   3.4985  10.9163  -1.9405   2.2623  -3.8171   2.00    0.0
2019/08/27 16:05:30.000   36.103634689  140.086315813    71.3872   5  13   3.3322   3.4987  10.9162  -1.9410   2.2638  -3.8169   3.00    0.0
2019/08/27 16:05:31.000   36.103637656  140.086313312    70.6208   5  13   3.3322   3.4989  10.9160  -1.9415   2.2653  -3.8166   4.00    0.0
2019/08/27 16:05:32.000   36.103636829  140.086315768    68.4623   5  13   3.3321   3.4991  10.9159  -1.9420   2.2668  -3.8164   0.00    0.0
2019/08/27 16:05:33.000   36.103637162  140.086316633    70.3609   5  13   3.3320   3.4993  10.9158  -1.9425   2.2684  -3.8162   1.00    0.0
2019/08/27 16:05:34.000   36.103633671  140.086319919    72.2716   5  13   3.3320   3.4995  10.9156  -1.9430   2.2699  -3.8160   2.00    0.0
2019/08/27 16:05:35.000   36.103633469  140.086317737    70.0540   5  13   3.3319   3.4997  10.9155  -1.9435   2.2714  -3.8157   3.00    0.0
2019/08/27 16:05:36.000   36.103634368  140.086318311    70.9656   5  13   3.3318   3.4998  10.9153  -1.9440   2.2729  -3.8155   4.00    0.0
2019/08/27 16:05:37.000   36.103636705  140.086320235    71.7358   5  13   3.3318   3.5000  10.9152  -1.9445   2.2744  -3.8153   0.00    0.0
2019/08/27 16:05:38.000   36.103639276  140.086310821    70.1131   5  13   3.3317   3.5002  10.9150  -1.9450   2.2760  -3.8150   1.00    0.0
2019/08/27 16:05:39.000   36.103637704  140.086321632    69.9882   5  13   3.3317   3.5004  10.9149  -1.9455   2.2775  -3.8148   2.00    0.0
2019/08/27 16:05:40.000   36.103634689  140.086320866    72.2912   5  13   3.3316   3.5006  10.9147  -1.9460   2.2790  -3.8146   3.00    0.0
2019/08/27 16:05:41.000   36.103634461  140.086323572    71.1475   5  13   3.3315   3.5008  10.9146  -1.9465   2.2805  -3.8144   4.00    0.0
2019/08/27 16:05:42.000   36.103634503  140.086320449    72.9885   5  13   3.3315   3.5010  10.9144  -1.9471   2.2820  -3.8141   0.00    0.0
2019/08/27 16:05:43.000   36.103638952  140.086324105    69.5763   5  13   3.3314   3.5012  10.9143  -1.9476   2.2835  -3.8139   1.00    0.0
2019/08/27 16:05:44.000   36.103636094  140.086319441    73.0432   5  13   3.3313   3.5013  10.9141  -1.9481   2.2850  -3.8137   2.00    0.0
2019/08/27 16:05:45.000   36.103636905  140.086319818    69.9853   5  13   3.3313   3.5015  10.9140  -1.9486   2.2865  -3.8135   3.00    0.0
2019/08/27 16:05:46.000   36.103635963  140.086322354    68.7233   5  13   3.3312   3.5017  10.9138  -1.9491   2.2881  -3.8133   4.00    0.0
2019/08/27 16:05:47.000   36.103632890  140.086328462    71.3753   5  13   3.3312   3.5019  10.9137  -1.9496   2.2896  -3.8130   0.00    0.0
2019/08/27 16:05:48.000   36.103633516  140.086324978    70.3602   5  13   3.3311   3.5021  10.9135  -1.9501   2.2911  -3.8128   1.00    0.0
2019/08/27 16:05:49.000   36.103634817  140.086315226    70.9384   5  13   3.3310   3.5023  10.9134  -1.9506   2.2926  -3.8126   2.00    0.0
2019/08/27 16:05:50.000   36.103640253  140.086327684    70.5544   5  13   3.3310   3.5025  10.9132  -1.9511   2.2941  -3.8124   3.00    0.0
2019/08/27 16:05:51.000   36.103629165  140.086317132    71.1474   5  13   3.3309   3.5027  10.9130  -1.9516   2.2956  -3.8121   4.00    0.0
2019/08/27 16:05:52.000   36.103638261  140.086314147    68.2647   5  13   3.3309   3.5029  10.9129  -1.9521   2.2971  -3.8119   0.00    0.0
2019/08/27 16:05:53.000   36.103639092  140.086321342    71.0844   5  13   3.3308   3.5031  10.9127  -1.9526   2.2986  -3.8117   1.00    0.0
2019/08/27 16:05:54.000   36.103632160  140.086323024    72.3501   5  13   3.3307   3.5032  10.9126  -1.9531   2.3001  -3.8115   2.00    0.0
2019/08/27 16:05:55.000   36.103636328  140.086327914    71.8676   5  13   3.3307   3.5034  10.9124  -1.9536   2.3016  -3.8113   3.00    0.0
2019/08/27 16:05:56.000   36.103633564  140.086323134    71.5189   5  13   3.3306   3.5036  10.9123  -1.9541   2.3031  -3.8110   4.00    0.0
2019/08/27 16:05:57.000   36.103630149  140.086323127    69.7408   5  13   3.3305   3.5038  10.9121  -1.9546   2.3046  -3.8108   0.00    0.0
2019/08/27 16:05:58.000   36.103630407  140.086326684    71.1092   5  13   3.3305   3.5040  10.9120  -1.9551   2.3061  -3.8106   1.00    0.0
2019/08/27 16:05:59.000   36.103633059  140.086329767    71.6523   5  13   3.3304   3.5042  10.9118  -1.9556   2.3076  -3.8104   2.00    0.0
2019/08/27 16:06:00.000   36.103631259  140.086319153    70.7530   5  13   3.3304   3.5044  10.9116  -1.9561   2.3091  -3.8102   3.00    0.0
2019/08/27 16:06:01.000   36.103637425  140.086317119    69.9404   5  13   3.3303   3.5046  10.9115  -1.9566   2.3106  -3.8100   4.00    0.0
2019/08/27 16:06:02.000   36.103632617  140.086319737    71.7458   5  13   3.3302   3.5048  10.9113  -1.9571   2.3121  -3.8097   0.00    0.0
2019/08/27 16:06:03.000   36.103634494  140.086317529    71.1028   5  13   3.3302   3.5050  10.9112  -1.9576   2.3136  -3.8095   1.00    0.0
2019/08/27 16:06:04.000   36.103641092  140.086317507    69.7387   5  13   3.3301   3.5052  10.9110  -1.9581   2.3151  -3.8093   2.00    0.0
2019/08/27 16:06:05.000   36.103633041  140.086321770    71.0404   5  13   3.3301   3.5054  10.9108  -1.9586   2.3166  -3.8091   3.00    0.0
2019/08/27 16:06:06.000   36.103635780  140.086315288    69.7741   5  13   3.3300   3.5056  10.9107  -1.9591   2.3181  -3.8089   4.00    0.0
2019/08/27 16:06:07.000   36.103639527  140.086314530    71.9794   5  13   3.3299   3.5057  10.9105  -1.9596   2.3195  -3.8087   0.00    0.0
2019/08/27 16:06:08.000   36.103635967  140.086311915    68.9908   5  13   3.3299   3.5059  10.9103  -1.9601   2.3210  -3.8084   1.00    0.0
2019/08/27 16:06:09.000   36.103636470  140.086324812    71.1050   5  13   3.3298   3.5061  10.9102  -1.9606   2.3225  -3.8082   2.00    0.0
2019/08/27 16:06:10.000   36.103634209  140.086315825    69.2424   5  13   3.3298   3.5063  10.9100  -1.9611   2.3240  -3.8080   3.00    0.0
2019/08/27 16:06:11.000   36.103639343  140.086320441    72.1874   5  13   3.3297   3.5065  10.9098  -1.9616   2.3255  -3.8078   4.00    0.0
2019/08/27 16:06:12.000   36.103637393  140.086312306    70.7574   5  13   3.3297   3.5067  10.9097  -1.9621   2.3270  -3.8076   0.00    0.0
2019/08/27 16:06:13.000   36.103635981  140.086319463    70.9182   5  13   3.3296   3.5069  10.9095  -1.9626   2.3285  -3.8074   1.00    0.0
2019/08/27 16:06:14.000   36.103634537  140.086323335    69.8322   5  13   3.3295   3.5071  10.9093  -1.9631   2.3300  -3.8072   2.00    0.0
2019/08/27 16:06:15.000   36.103635489  140.086319738    68.9323   5  13   3.3295   3.5073  10.9092  -1.9636   2.3314  -3.8070   3.00    0.0
2019/08/27 16:06:16.000   36.103635847  140.086317130    70.8558   5  13   3.3294   3.5075  10.9090  -1.9641   2.3329  -3.8067   4.00    0.0
2019/08/27 16:06:17.000   36.103631186  140.086321652    72.8776   5  13   3.3294   3.5077  10.9088  -1.9646   2.3344  -3.8065   0.00    0.0
2019/08/27 16:06:18.000   36.103637281  140.086319501    71.2497   5  13   3.3293   3.5079  10.9087  -1.9651   2.3359  -3.8063   1.00    0.0
2019/08/27 16:06:19.000   36.103637277  140.086321806    69.5958   5  13   3.3292   3.5081  10.9085  -1.9656   2.3374  -3.8061   2.00    0.0
2019/08/27 16:06:20.000   36.103636988  140.086314158    70.2628   5  13   3.3292   3.5083  10.9083  -1.9661   2.3389  -3.8059   3.00    0.0
2019/08/27 16:06:21.000   36.103637958  140.086316502    70.8570   5  13   3.3291   3.5085  10.9082  -1.9666   2.3403  -3.8057   4.00    0.0
2019/08/27 16:06:22.000   36.103634293  140.086317660    70.1371   5  13   3.3291   3.5087  10.9080  -1.9671   2.3418  -3.8055   0.00    0.0
2019/08/27 16:06:23.000   36.103638783  140.086313354    69.2623   5  13   3.3290   3.5089  10.9078  -1.9676   2.3433  -3.8053   1.00    0.0
2019/08/27 16:06:24.000   36.103632072  140.086313204    72.5563   5  13   3.3290   3.5090  10.9077  -1.9681   2.3448  -3.8051   2.00    0.0
2019/08/27 16:06:25.000   36.103634962  140.086312112    70.8751   5  13   3.3289   3.5092  10.9075  -1.9686   2.3462  -3.8049   3.00    0.0
2019/08/27 16:06:26.000   36.103632684  140.086315812    68.5668   5  13   3.3289   3.5094  10.9073  -1.9690   2.3477  -3.8046   4.00    0.0
2019/08/27 16:06:27.000   36.103634527  140.086321066    68.2415   5  13   3.3288   3.5096  10.9071  -1.9695   2.3492  -3.8044   0.00    0.0
2019/08/27 16:06:28.000   36.103636844  140.086316110    69.5670   5  13   3.3287   3.5098  10.9070  -1.9700   2.3507  -3.8042   1.00    0.0
2019/08/27 16:06:29.000   36.103638955  140.086315843    71.3726   5  13   3.3287   3.5100  10.9068  -1.9705   2.3521  -3.8040   2.00    0.0
2019/08/27 16:06:30.000   36.103635903  140.086317911    70.0420   5  13   3.3286   3.5102  10.9066  -1.9710   2.3536  -3.8038   3.00    0.0
2019/08/27 16:06:31.000   36.103632051  140.086321827    72.8767   5  13   3.3286   3.5104  10.9064  -1.9715   2.3551  -3.8036   4.00    0.0
2019/08/27 16:06:32.000   36.103633344  140.086321719    72.6298   5  13   3.3285   3.5106  10.9063  -1.9720   2.3565  -3.8034   0.00    0.0
2019/08/27 16:06:33.000   36.103638956  140.086325347    72.6239   5  13   3.3285   3.5108  10.9061  -1.9725   2.3580  -3.8032   1.00    0.0
2019/08/27 16:06:34.000   36.103637098  140.086321326    71.5588   5  13   3.3284   3.5110  10.9059  -1.9730   2.3595  -3.8030   2.00    0.0
2019/08/27 16:06:35.000   36.103641740  140.086317798    72.3107   5  13   3.3283   3.5112  10.9057  -1.9735   2.3610  -3.8028   3.00    0.0
2019/08/27 16:06:36.000   36.103632628  140.086319433    72.9157   5  13   3.3283   3.5114  10.9056  -1.9740   2.3624  -3.8026   4.00    0.0
2019/08/27 16:06:37.000   36.103638618  140.086318117    70.8362   5  13   3.3282   3.5116  10.9054  -1.9745   2.3639  -3.8024   0.00    0.0
2019/08/27 16:06:38.000   36.103635586  140.086327540    71.3862   5  13   3.3282   3.5118  10.9052  -1.9750   2.3653  -3.8022   1.00    0.0
2019/08/27 16:06:39.000   36.103638570  140.086314328    71.4209   5  13   3.3281   3.5120  10.9050  -1.9755   2.3668  -3.8020   2.00    0.0
2019/08/27 16:06:40.000   36.103632882  140.086315584    72.0807   5  13   3.3281   3.5122  10.9048  -1.9760   2.3683  -3.8018   3.00    0.0
2019/08/27 16:06:41.000   36.103638879  140.086317537    70.5044   5  13   3.3280   3.5124  10.9047  -1.9765   2.3697  -3.8016   4.00    0.0
2019/08/27 16:06:42.000   36.103634657  140.086320572    72.1521   5  13   3.3280   3.5126  10.9045  -1.9770   2.3712  -3.8014   0.00    0.0
2019/08/27 16:06:43.000   36.103636894  140.086312511    69.4784   5  13   3.3279   3.5128  10.9043  -1.9775   2.3727  -3.8012   1.00    0.0
2019/08/27 16:06:44.000   36.103635396  140.086325270    71.5808   5  13   3.3279   3.5130  10.9041  -1.9780   2.3741  -3.8010   2.00    0.0
2019/08/27 16:06:45.000   36.103639301  140.086322865    69.1754   5  13   3.3278   3.5132  10.9039  -1.9785   2.3756  -3.8008   3.00    0.0
2019/08/27 16:06:46.000   36.103636728  140.086328636    69.9240   5  13   3.3277   3.5134  10.9038  -1.9790   2.3770  -3.8006   4.00    0.0
2019/08/27 16:06:47.000   36.103632758  140.086322554    67.8149   5  13   3.3277   3.5136  10.9036  -1.9795   2.3785  -3.8004   0.00    0.0
2019/08/27 16:06:48.000   36.103631184  140.086322075    74.3663   5  13   3.3276   3.5138  10.9034  -1.9799   2.3800  -3.8002   1.00    0.0
2019/08/27 16:06:49.000   36.103634500  140.086328624    71.4674   5  13   3.3276   3.5140  10.9032  -1.9804   2.3814  -3.8000   2.00    0.0
2019/08/27 16:06:50.000   36.103638806  140.086327394    69.6646   5  13   3.3275   3.5142  10.9030  -1.9809   2.3829  -3.7998   3.00    0.0
2019/08/27 16:06:51.000   36.103636801  140.086319825    70.6538   5  13   3.3275   3.5144  10.9028  -1.9814   2.3843  -3.7996   4.00    0.0
2019/08/27 16:06:52.000   36.103632440  140.086318592    71.5267   5  13   3.3274   3.5146  10.9026  -1.9819   2.3858  -3.7994   0.00    0.0
2019/08/27 16:06:53.000   36.103633256  140.086321097    72.1853   5  13   3.3274   3.5148  10.9025  -1.9824   2.3872  -3.7992   1.00    0.0
2019/08/27 16:06:54.000   36.103632775  140.086322238    70.5310   5  13   3.3273   3.5150  10.9023  -1.9829   2.3887  -3.7990   2.00    0.0
2019/08/27 16:06:55.000   36.103637395  140.086319062    72.4240   5  13   3.3273   3.5152  10.9021  -1.9834   2.3901  -3.7988   3.00    0.0
2019/08/27 16:06:56.000   36.103637659  140.086321635    69.4717   5  13   3.3272   3.5154  10.9019  -1.9839   2.3916  -3.7986   4.00    0.0
2019/08/27 16:06:57.000   36.103634587  140.086318390    72.8772   5  13   3.3272   3.5156  10.9017  -1.9844   2.3930  -3.7984   0.00    0.0
2019/08/27 16:06:58.000   36.103631230  140.086323969    70.4418   5  13   3.3271   3.5158  10.9015  -1.9849   2.3945  -3.7982   1.00    0.0
2019/08/27 16:06:59.000   36.103632088  140.086318319    70.6147   5  13   3.3271   3.5160  10.9013  -1.9854   2.3959  -3.7980   2.00    0.0
2019/08/27 16:07:00.000   36.103631239  140.086315669    70.1826   5  13   3.3270   3.5162  10.9011  -1.9859   2.3974  -3.7978   3.00    0.0
2019/08/27 16:07:01.000   36.103632356  140.086319124    71.5724   5  13   3.3269   3.5164  10.9010  -1.9864   2.3988  -3.7976   4.00    0.0
